$GNGGA,193043.000,3850.2389,N,09447.3421,W,2,10,0.97,319.6,M,-30.0,M,,*47
$GPGSA,A,3,27,09,26,31,07,04,16,,,,,,1.29,0.97,0.84*04
$GLGSA,A,3,67,66,76,,,,,,,,,,1.29,0.97,0.84*16
$GNRMC,193043.000,A,3850.2389,N,09447.3421,W,0.75,55.62,261124,,,D*5B
$GNVTG,55.62,T,,M,0.75,N,1.39,K,D*1B
$GNGGA,193044.000,3850.2393,N,09447.3420,W,2,10,0.97,319.7,M,-30.0,M,,*4B
$GPGSA,A,3,27,09,26,31,07,04,16,,,,,,1.29,0.97,0.84*04
$GLGSA,A,3,67,66,76,,,,,,,,,,1.29,0.97,0.84*16
$GPGSV,3,1,10,04,87,266,18,16,62,053,28,09,55,309,35,44,39,213,*7A
$GPGSV,3,2,10,27,36,127,13,26,29,050,27,07,28,285,28,08,22,162,*75
$GPGSV,3,3,10,03,22,207,,31,20,079,24*76
$GLGSV,2,1,07,67,74,283,22,66,41,166,16,78,33,252,20,76,28,040,25*69
$GLGSV,2,2,07,68,27,328,,86,06,071,,85,04,021,19*5C
$GNRMC,193044.000,A,3850.2393,N,09447.3420,W,0.79,42.11,261124,,,D*58
$GNVTG,42.11,T,,M,0.79,N,1.46,K,D*1D
$GNGGA,193045.000,3850.2390,N,09447.3419,W,2,10,0.97,319.7,M,-30.0,M,,*43
$GPGSA,A,3,27,09,26,31,07,04,16,,,,,,1.29,0.97,0.84*04
$GLGSA,A,3,67,66,76,,,,,,,,,,1.29,0.97,0.84*16
$GNRMC,193045.000,A,3850.2390,N,09447.3419,W,1.00,9.38,261124,,,D*6B
$GNVTG,9.38,T,,M,1.00,N,1.85,K,D*29
$GNGGA,193046.000,3850.2392,N,09447.3419,W,2,10,0.97,319.8,M,-30.0,M,,*4D
$GPGSA,A,3,27,09,26,31,07,04,16,,,,,,1.29,0.97,0.84*04
$GLGSA,A,3,67,66,76,,,,,,,,,,1.29,0.97,0.84*16
$GNRMC,193046.000,A,3850.2392,N,09447.3419,W,0.26,9.38,261124,,,D*6F
$GNVTG,9.38,T,,M,0.26,N,0.47,K,D*23
$GNGGA,193047.000,3850.2391,N,09447.3419,W,2,10,0.97,319.7,M,-30.0,M,,*40
$GPGSA,A,3,27,09,26,31,07,04,16,,,,,,1.29,0.97,0.84*04
$GLGSA,A,3,67,66,76,,,,,,,,,,1.29,0.97,0.84*16
$GNRMC,193047.000,A,3850.2391,N,09447.3419,W,0.23,9.38,261124,,,D*68
$GNVTG,9.38,T,,M,0.23,N,0.43,K,D*22
$GNGGA,193048.000,3850.2395,N,09447.3420,W,2,10,0.97,319.7,M,-30.0,M,,*41
$GPGSA,A,3,27,09,26,31,07,04,16,,,,,,1.29,0.97,0.84*04
$GLGSA,A,3,67,66,76,,,,,,,,,,1.29,0.97,0.84*16
$GNRMC,193048.000,A,3850.2395,N,09447.3420,W,0.55,9.38,261124,,,D*68
$GNVTG,9.38,T,,M,0.55,N,1.02,K,D*27
$GNGGA,193049.000,3850.2396,N,09447.3421,W,2,10,0.97,319.7,M,-30.0,M,,*42
$GPGSA,A,3,27,09,26,31,07,04,16,,,,,,1.29,0.97,0.84*04
$GLGSA,A,3,67,66,76,,,,,,,,,,1.29,0.97,0.84*16
$GPGSV,3,1,10,04,87,266,18,16,62,053,28,09,55,309,35,51,43,199,*72
$GPGSV,3,2,10,27,36,127,14,26,29,050,26,07,28,285,27,08,22,162,*7C
$GPGSV,3,3,10,03,22,207,,31,19,080,23*7D
$GLGSV,2,1,07,67,74,283,23,66,41,166,15,78,33,252,21,76,28,040,25*6A
$GLGSV,2,2,07,68,27,328,,86,06,071,,85,04,021,20*56
$GNRMC,193049.000,A,3850.2396,N,09447.3421,W,0.51,9.38,261124,,,D*6F
$GNVTG,9.38,T,,M,0.51,N,0.94,K,D*2D
$GNGGA,193050.000,3850.2396,N,09447.3420,W,2,10,0.97,319.8,M,-30.0,M,,*44
$GPGSA,A,3,27,09,26,31,07,04,16,,,,,,1.29,0.97,0.84*04
$GLGSA,A,3,67,66,76,,,,,,,,,,1.29,0.97,0.84*16
$GNRMC,193050.000,A,3850.2396,N,09447.3420,W,0.85,153.89,261124,,,D*6B
$GNVTG,153.89,T,,M,0.85,N,1.58,K,D*21
$GNGGA,193051.000,3850.2394,N,09447.3419,W,2,9,1.21,319.6,M,-30.0,M,,*77
$GPGSA,A,3,27,09,26,31,07,04,16,,,,,,1.48,1.21,0.85*0E
$GLGSA,A,3,67,76,,,,,,,,,,,1.48,1.21,0.85*1C
$GNRMC,193051.000,A,3850.2394,N,09447.3419,W,1.50,162.24,261124,,,D*6E
$GNVTG,162.24,T,,M,1.50,N,2.79,K,D*2D
$GNGGA,193052.000,3850.2393,N,09447.3418,W,2,9,1.21,319.6,M,-30.0,M,,*72
$GPGSA,A,3,27,09,26,31,07,04,16,,,,,,1.48,1.21,0.85*0E
$GLGSA,A,3,67,76,,,,,,,,,,,1.48,1.21,0.85*1C
$GNRMC,193052.000,A,3850.2393,N,09447.3418,W,0.55,162.24,261124,,,D*6F
$GNVTG,162.24,T,,M,0.55,N,1.02,K,D*26$GNGGA,193053.000,3850.2392,N,09447.3417,W,2,9,1.21,319.6,M,-30.0,M,,*7D
$GPGSA,A,3,27,09,26,31,07,04,16,,,,,,1.48,1.21,0.85*0E
$GLGSA,A,3,67,76,,,,,,,,,,,1.48,1.21,0.85*1C
$GNRMC,193053.000,A,3850.2392,N,09447.3417,W,0.44,162.24,261124,,,D*60
$GNVTG,162.24,T,,M,0.44,N,0.81,K,D*2C$GNGGA,193054.000,3850.2388,N,09447.3417,W,2,9,1.21,319.6,M,-30.0,M,,*71
$GPGSA,A,3,27,09,26,31,07,04,16,,,,,,1.48,1.21,0.85*0E
$GLGSA,A,3,67,76,,,,,,,,,,,1.48,1.21,0.85*1C
$GPGSV,3,1,10,04,87,266,20,16,62,053,27,09,55,309,35,51,43,199,*76
$GPGSV,3,2,10,27,36,127,12,26,29,050,26,07,28,285,29,08,22,162,*74
$GPGSV,3,3,10,03,22,207,,31,19,080,23*7D
$GLGSV,2,1,07,67,74,283,23,66,41,166,,78,33,252,22,76,28,040,25*6D
$GLGSV,2,2,07,68,27,328,,86,06,071,,85,04,021,20*56
$GNRMC,193054.000,A,3850.2388,N,09447.3417,W,0.85,169.03,261124,,,D*6F
$GNVTG,169.03,T,,M,0.85,N,1.57,K,D*25
$GNGGA,193055.000,3850.2390,N,09447.3417,W,2,9,1.21,319.6,M,-30.0,M,,*79
$GPGSA,A,3,27,09,26,31,07,04,16,,,,,,1.48,1.21,0.85*0E
$GLGSA,A,3,67,76,,,,,,,,,,,1.48,1.21,0.85*1C
$GNRMC,193055.000,A,3850.2390,N,09447.3417,W,1.48,164.40,261124,,,D*6D
$GNVTG,164.40,T,,M,1.48,N,2.74,K,D*2D$GNGGA,193056.000,3850.2387,N,09447.3415,W,2,9,1.21,319.5,M,-30.0,M,,*7D
$GPGSA,A,3,27,09,26,31,07,04,16,,,,,,1.48,1.21,0.85*0E
$GLGSA,A,3,67,76,,,,,,,,,,,1.48,1.21,0.85*1C
$GNRMC,193056.000,A,3850.2387,N,09447.3415,W,0.96,148.62,261124,,,D*66
$GNVTG,148.62,T,,M,0.96,N,1.78,K,D*2E
$GNGGA,193057.000,3850.2387,N,09447.3415,W,2,8,1.89,319.5,M,-30.0,M,,*7F
$GPGSA,A,3,09,26,31,07,04,16,,,,,,,2.08,1.89,0.87*0C
$GLGSA,A,3,67,76,,,,,,,,,,,2.08,1.89,0.87*1B
$GNRMC,193057.000,A,3850.2387,N,09447.3415,W,0.08,148.62,261124,,,D*60
$GNVTG,148.62,T,,M,0.08,N,0.15,K,D*23
$GNGGA,193058.000,3850.2388,N,09447.3415,W,2,8,1.89,319.5,M,-30.0,M,,*7F
$GPGSA,A,3,09,26,31,07,04,16,,,,,,,2.08,1.89,0.87*0C
$GLGSA,A,3,67,76,,,,,,,,,,,2.08,1.89,0.87*1B
$GNRMC,193058.000,A,3850.2388,N,09447.3415,W,0.12,148.62,261124,,,D*6B
$GNVTG,148.62,T,,M,0.12,N,0.23,K,D*2D
$GNGGA,193059.000,3850.2386,N,09447.3414,W,2,8,1.89,319.5,M,-30.0,M,,*71
$GPGSA,A,3,09,26,31,07,04,16,,,,,,,2.08,1.89,0.87*0C
$GLGSA,A,3,67,76,,,,,,,,,,,2.08,1.89,0.87*1B
$GPGSV,3,1,10,04,87,266,24,16,62,053,28,09,55,309,36,27,36,127,*78
$GPGSV,3,2,10,48,30,231,,26,29,050,26,07,28,285,28,08,22,162,*7D
$GPGSV,3,3,10,03,22,207,,31,19,080,24*7A
$GLGSV,2,1,07,67,74,283,23,66,41,166,,78,33,252,23,76,28,040,24*6D
$GLGSV,2,2,07,68,27,328,,86,06,071,,85,04,021,20*56
$GNRMC,193059.000,A,3850.2386,N,09447.3414,W,0.30,148.62,261124,,,D*65
$GNVTG,148.62,T,,M,0.30,N,0.55,K,D*2C
$GNGGA,193100.000,3850.2384,N,09447.3413,W,2,8,1.89,319.4,M,-30.0,M,,*78
$GPGSA,A,3,09,26,31,07,04,16,,,,,,,2.08,1.89,0.87*0C
$GLGSA,A,3,67,76,,,,,,,,,,,2.08,1.89,0.87*1B
$GNRMC,193100.000,A,3850.2384,N,09447.3413,W,0.79,27.44,261124,,,D*5C
$GNVTG,27.44,T,,M,0.79,N,1.46,K,D*1E
$GNGGA,193101.000,3850.2386,N,09447.3413,W,2,8,1.89,319.6,M,-30.0,M,,*79
$GPGSA,A,3,09,26,31,07,04,16,,,,,,,2.08,1.89,0.87*0C
$GLGSA,A,3,67,76,,,,,,,,,,,2.08,1.89,0.87*1B
$GNRMC,193101.000,A,3850.2386,N,09447.3413,W,0.55,27.44,261124,,,D*51
$GNVTG,27.44,T,,M,0.55,N,1.01,K,D*13
$GNGGA,193102.000,3850.2389,N,09447.3413,W,2,9,1.13,319.6,M,-30.0,M,,*77
$GPGSA,A,3,09,26,31,03,07,04,16,,,,,,1.39,1.13,0.81*0B
$GLGSA,A,3,67,76,,,,,,,,,,,1.39,1.13,0.81*1F
$GNRMC,193102.000,A,3850.2389,N,09447.3413,W,0.39,27.44,261124,,,D*57
$GNVTG,27.44,T,,M,0.39,N,0.71,K,D*1F
$GNGGA,193103.000,3850.2390,N,09447.3412,W,2,9,1.13,319.6,M,-30.0,M,,*7F
$GPGSA,A,3,09,26,31,03,07,04,16,,,,,,1.39,1.13,0.81*0B
$GLGSA,A,3,67,76,,,,,,,,,,,1.39,1.13,0.81*1F
$GNRMC,193103.000,A,3850.2390,N,09447.3412,W,0.30,27.44,261124,,,D*56
$GNVTG,27.44,T,,M,0.30,N,0.55,K,D*10
$GNGGA,193104.000,3850.2388,N,09447.3412,W,2,9,1.13,319.6,M,-30.0,M,,*71
$GPGSA,A,3,09,26,31,03,07,04,16,,,,,,1.39,1.13,0.81*0B
$GLGSA,A,3,67,76,,,,,,,,,,,1.39,1.13,0.81*1F
$GPGSV,3,1,10,04,87,266,23,16,62,053,28,09,55,309,36,27,36,127,*7F
$GPGSV,3,2,10,48,30,231,,26,29,050,27,07,28,285,28,08,22,162,*7C
$GPGSV,3,3,10,03,22,207,17,31,19,080,24*7C
$GLGSV,2,1,07,67,74,283,23,66,41,166,,78,33,252,24,76,28,040,24*6A
$GLGSV,2,2,07,68,27,328,,86,06,071,,85,04,021,23*55
$GNRMC,193104.000,A,3850.2388,N,09447.3412,W,0.57,27.44,261124,,,D*59
$GNVTG,27.44,T,,M,0.57,N,1.06,K,D*16
$GNGGA,193105.000,3850.2387,N,09447.3411,W,2,9,1.13,319.6,M,-30.0,M,,*7C
$GPGSA,A,3,09,26,31,03,07,04,16,,,,,,1.39,1.13,0.81*0B
$GLGSA,A,3,67,76,,,,,,,,,,,1.39,1.13,0.81*1F
$GNRMC,193105.000,A,3850.2387,N,09447.3411,W,0.35,27.44,261124,,,D*50
$GNVTG,27.44,T,,M,0.35,N,0.64,K,D*17
$GNGGA,193106.000,3850.2382,N,09447.3410,W,2,9,1.13,319.5,M,-30.0,M,,*78
$GPGSA,A,3,09,26,31,03,07,04,16,,,,,,1.39,1.13,0.81*0B
$GLGSA,A,3,67,76,,,,,,,,,,,1.39,1.13,0.81*1F
$GNRMC,193106.000,A,3850.2382,N,09447.3410,W,0.45,27.44,261124,,,D*50
$GNVTG,27.44,T,,M,0.45,N,0.83,K,D*19
$GNGGA,193107.000,3850.2378,N,09447.3410,W,2,9,1.13,319.5,M,-30.0,M,,*7C
$GPGSA,A,3,09,26,31,03,07,04,16,,,,,,1.39,1.13,0.81*0B
$GLGSA,A,3,67,76,,,,,,,,,,,1.39,1.13,0.81*1F
$GNRMC,193107.000,A,3850.2378,N,09447.3410,W,0.10,27.44,261124,,,D*54
$GNVTG,27.44,T,,M,0.10,N,0.19,K,D*1A
$GNGGA,193108.000,3850.2380,N,09447.3409,W,2,9,1.13,319.5,M,-30.0,M,,*7C
$GPGSA,A,3,09,26,31,03,07,04,16,,,,,,1.39,1.13,0.81*0B
$GLGSA,A,3,67,76,,,,,,,,,,,1.39,1.13,0.81*1F
$GNRMC,193108.000,A,3850.2380,N,09447.3409,W,0.12,27.44,261124,,,D*56
$GNVTG,27.44,T,,M,0.12,N,0.23,K,D*11
$GNGGA,193109.000,3850.2380,N,09447.3410,W,2,9,1.13,319.5,M,-30.0,M,,*75
$GPGSA,A,3,09,26,31,03,07,04,16,,,,,,1.39,1.13,0.81*0B
$GLGSA,A,3,67,76,,,,,,,,,,,1.39,1.13,0.81*1F
$GPGSV,3,1,10,04,87,266,23,16,62,053,29,09,55,309,36,44,39,213,*70
$GPGSV,3,2,10,27,36,127,,26,29,050,27,07,28,285,28,08,22,162,*77
$GPGSV,3,3,10,03,22,207,17,31,19,080,23*7B
$GLGSV,2,1,07,67,74,283,23,66,41,166,,78,33,252,22,76,28,040,25*6D
$GLGSV,2,2,07,68,27,328,,86,06,071,,85,04,021,23*55
$GNRMC,193109.000,A,3850.2380,N,09447.3410,W,1.55,171.88,261124,,,D*6F
$GNVTG,171.88,T,,M,1.55,N,2.87,K,D*2D
$GNGGA,193110.000,3850.2376,N,09447.3408,W,2,9,1.13,319.4,M,-30.0,M,,*7C
$GPGSA,A,3,09,26,31,03,07,04,16,,,,,,1.39,1.13,0.81*0B
$GLGSA,A,3,67,76,,,,,,,,,,,1.39,1.13,0.81*1F
$GNRMC,193110.000,A,3850.2376,N,09447.3408,W,1.52,159.31,261124,,,D*68
$GNVTG,159.31,T,,M,1.52,N,2.82,K,D*27
$GNGGA,193111.000,3850.2375,N,09447.3406,W,2,9,1.13,319.3,M,-30.0,M,,*77
$GPGSA,A,3,09,26,31,03,07,04,16,,,,,,1.39,1.13,0.81*0B
$GLGSA,A,3,67,76,,,,,,,,,,,1.39,1.13,0.81*1F
$GNRMC,193111.000,A,3850.2375,N,09447.3406,W,0.75,151.02,261124,,,D*68
$GNVTG,151.02,T,,M,0.75,N,1.38,K,D*29
$GNGGA,193112.000,3850.2376,N,09447.3408,W,2,10,0.95,319.2,M,-30.0,M,,*4F
$GPGSA,A,3,09,26,31,03,07,04,27,16,,,,,1.25,0.95,0.81*0C
$GLGSA,A,3,67,76,,,,,,,,,,,1.25,0.95,0.81*1D
$GNRMC,193112.000,A,3850.2376,N,09447.3408,W,0.28,151.02,261124,,,D*6E
$GNVTG,151.02,T,,M,0.28,N,0.52,K,D*2C
$GNGGA,193113.000,3850.2378,N,09447.3409,W,2,10,0.95,319.1,M,-30.0,M,,*42
$GPGSA,A,3,09,26,31,03,07,04,27,16,,,,,1.25,0.95,0.81*0C
$GLGSA,A,3,67,76,,,,,,,,,,,1.25,0.95,0.81*1D
$GNRMC,193113.000,A,3850.2378,N,09447.3409,W,0.90,139.59,261124,,,D*63
$GNVTG,139.59,T,,M,0.90,N,1.66,K,D*29
$GNGGA,193114.000,3850.2379,N,09447.3408,W,2,10,0.95,318.9,M,-30.0,M,,*4C
$GPGSA,A,3,09,26,31,03,07,04,27,16,,,,,1.25,0.95,0.81*0C
$GLGSA,A,3,67,76,,,,,,,,,,,1.25,0.95,0.81*1D
$GPGSV,3,1,10,04,87,266,21,16,62,053,28,09,55,309,36,44,39,213,*73
$GPGSV,3,2,10,27,36,127,17,26,29,050,26,07,28,285,26,08,22,162,*7E
$GPGSV,3,3,10,03,22,207,19,31,19,080,22*74
$GLGSV,2,1,07,67,74,283,23,66,41,166,,78,33,252,21,76,28,040,23*68
$GLGSV,2,2,07,68,27,328,,86,06,071,,85,04,021,22*54
$GNRMC,193114.000,A,3850.2379,N,09447.3408,W,0.38,139.59,261124,,,D*66
$GNVTG,139.59,T,,M,0.38,N,0.70,K,D*2D
$GNGGA,193115.000,3850.2378,N,09447.3407,W,2,10,0.95,318.9,M,-30.0,M,,*43
$GPGSA,A,3,09,26,31,03,07,04,27,16,,,,,1.25,0.95,0.81*0C
$GLGSA,A,3,67,76,,,,,,,,,,,1.25,0.95,0.81*1D
$GNRMC,193115.000,A,3850.2378,N,09447.3407,W,0.27,139.59,261124,,,D*67
$GNVTG,139.59,T,,M,0.27,N,0.51,K,D*20
$GNGGA,193116.000,3850.2379,N,09447.3407,W,2,10,0.95,318.9,M,-30.0,M,,*41
$GPGSA,A,3,09,26,31,03,07,04,27,16,,,,,1.25,0.95,0.81*0C
$GLGSA,A,3,67,76,,,,,,,,,,,1.25,0.95,0.81*1D
$GNRMC,193116.000,A,3850.2379,N,09447.3407,W,0.29,139.59,261124,,,D*6B
$GNVTG,139.59,T,,M,0.29,N,0.54,K,D*2B
$GNGGA,193117.000,3850.2377,N,09447.3406,W,2,10,0.95,318.9,M,-30.0,M,,*4F
$GPGSA,A,3,09,26,31,03,07,04,27,16,,,,,1.25,0.95,0.81*0C
$GLGSA,A,3,67,76,,,,,,,,,,,1.25,0.95,0.81*1D
$GNRMC,193117.000,A,3850.2377,N,09447.3406,W,0.98,154.62,261124,,,D*6C
$GNVTG,154.62,T,,M,0.98,N,1.82,K,D*28
$GNGGA,193118.000,3850.2374,N,09447.3405,W,2,10,0.95,318.8,M,-30.0,M,,*41
$GPGSA,A,3,09,26,31,03,07,04,27,16,,,,,1.25,0.95,0.81*0C
$GLGSA,A,3,67,76,,,,,,,,,,,1.25,0.95,0.81*1D
$GNRMC,193118.000,A,3850.2374,N,09447.3405,W,0.33,154.62,261124,,,D*62
$GNVTG,154.62,T,,M,0.33,N,0.61,K,D*25
$GNGGA,193119.000,3850.2373,N,09447.3405,W,2,10,0.95,318.8,M,-30.0,M,,*47
$GPGSA,A,3,09,26,31,03,07,04,27,16,,,,,1.25,0.95,0.81*0C
$GLGSA,A,3,67,76,,,,,,,,,,,1.25,0.95,0.81*1D
$GPGSV,3,1,10,04,87,266,19,16,62,053,28,09,55,309,37,44,39,213,*79
$GPGSV,3,2,10,27,36,127,14,26,29,050,28,07,28,285,25,08,22,162,*70
$GPGSV,3,3,10,03,22,207,19,31,19,080,22*74
$GLGSV,2,1,07,67,74,283,12,66,41,166,,78,33,252,17,76,28,040,18*67
$GLGSV,2,2,07,68,27,328,,86,06,071,,85,04,021,17*52
$GNRMC,193119.000,A,3850.2373,N,09447.3405,W,0.41,154.62,261124,,,D*61
$GNVTG,154.62,T,,M,0.41,N,0.75,K,D*25
$GNGGA,193120.000,3850.2372,N,09447.3405,W,2,10,0.95,318.8,M,-30.0,M,,*4C
$GPGSA,A,3,09,26,31,03,07,04,27,16,,,,,1.25,0.95,0.81*0C
$GLGSA,A,3,67,76,,,,,,,,,,,1.25,0.95,0.81*1D
$GNRMC,193120.000,A,3850.2372,N,09447.3405,W,0.58,154.62,261124,,,D*62
$GNVTG,154.62,T,,M,0.58,N,1.07,K,D*29
$GNGGA,193121.000,3850.2372,N,09447.3406,W,2,10,0.95,318.8,M,-30.0,M,,*4E
$GPGSA,A,3,09,26,31,03,07,04,27,16,,,,,1.25,0.95,0.81*0C
$GLGSA,A,3,67,76,,,,,,,,,,,1.25,0.95,0.81*1D
$GNRMC,193121.000,A,3850.2372,N,09447.3406,W,0.98,145.13,261124,,,D*6A
$GNVTG,145.13,T,,M,0.98,N,1.82,K,D*2E
$GNGGA,193122.000,3850.2367,N,09447.3405,W,2,9,0.95,318.7,M,-30.0,M,,*7D
$GPGSA,A,3,09,26,31,03,07,04,27,16,,,,,1.27,0.95,0.83*0C
$GLGSA,A,3,76,,,,,,,,,,,,1.27,0.95,0.83*1C
$GNRMC,193122.000,A,3850.2367,N,09447.3405,W,0.56,145.13,261124,,,D*6C
$GNVTG,145.13,T,,M,0.56,N,1.03,K,D*25$GNGGA,193123.000,3850.2365,N,09447.3405,W,2,9,0.95,318.7,M,-30.0,M,,*7E
$GPGSA,A,3,09,26,31,03,07,04,27,16,,,,,1.27,0.95,0.83*0C
$GLGSA,A,3,76,,,,,,,,,,,,1.27,0.95,0.83*1C
$GNRMC,193123.000,A,3850.2365,N,09447.3405,W,0.77,167.24,261124,,,D*68
$GNVTG,167.24,T,,M,0.77,N,1.43,K,D*26
$GNGGA,193124.000,3850.2362,N,09447.3403,W,2,9,0.95,318.7,M,-30.0,M,,*78
$GPGSA,A,3,09,26,31,03,07,04,27,16,,,,,1.27,0.95,0.83*0C
$GLGSA,A,3,76,,,,,,,,,,,,1.27,0.95,0.83*1C
$GPGSV,3,1,10,04,87,266,19,16,62,053,28,09,55,309,37,51,43,199,*71
$GPGSV,3,2,10,27,36,127,12,26,29,050,29,07,28,285,26,08,22,162,*74
$GPGSV,3,3,10,03,22,207,19,31,19,080,21*77
$GLGSV,2,1,07,67,74,283,13,66,39,167,,78,33,252,17,76,28,040,17*67
$GLGSV,2,2,07,68,27,328,,86,06,071,,85,04,021,11*54
$GNRMC,193124.000,A,3850.2362,N,09447.3403,W,1.10,155.11,261124,,,D*69
$GNVTG,155.11,T,,M,1.10,N,2.03,K,D*26
$GNGGA,193125.000,3850.2360,N,09447.3401,W,2,9,0.95,318.6,M,-30.0,M,,*78
$GPGSA,A,3,09,26,31,03,07,04,27,16,,,,,1.27,0.95,0.83*0C
$GLGSA,A,3,76,,,,,,,,,,,,1.27,0.95,0.83*1C
$GNRMC,193125.000,A,3850.2360,N,09447.3401,W,1.05,155.52,261124,,,D*6B
$GNVTG,155.52,T,,M,1.05,N,1.94,K,D*28$GNGGA,193126.000,3850.2354,N,09447.3400,W,2,9,0.95,318.6,M,-30.0,M,,*7D
$GPGSA,A,3,09,26,31,03,07,04,27,16,,,,,1.27,0.95,0.83*0C
$GLGSA,A,3,76,,,,,,,,,,,,1.27,0.95,0.83*1C
$GNRMC,193126.000,A,3850.2354,N,09447.3400,W,0.92,157.70,261124,,,D*63
$GNVTG,157.70,T,,M,0.92,N,1.70,K,D*2F
$GNGGA,193127.000,3850.2355,N,09447.3402,W,2,9,0.95,318.5,M,-30.0,M,,*7C
$GPGSA,A,3,09,26,31,03,07,04,27,16,,,,,1.27,0.95,0.83*0C
$GLGSA,A,3,76,,,,,,,,,,,,1.27,0.95,0.83*1C
$GNRMC,193127.000,A,3850.2355,N,09447.3402,W,0.67,180.55,261124,,,D*66
$GNVTG,180.55,T,,M,0.67,N,1.24,K,D*29
$GNGGA,193128.000,3850.2356,N,09447.3404,W,2,8,1.13,318.5,M,-30.0,M,,*78
$GPGSA,A,3,09,26,31,03,07,04,16,,,,,,1.41,1.13,0.84*01
$GLGSA,A,3,76,,,,,,,,,,,,1.41,1.13,0.84*14
$GNRMC,193128.000,A,3850.2356,N,09447.3404,W,0.70,178.09,261124,,,D*64
$GNVTG,178.09,T,,M,0.70,N,1.29,K,D*2C
$GNGGA,193129.000,3850.2353,N,09447.3403,W,2,8,1.13,318.5,M,-30.0,M,,*7B
$GPGSA,A,3,09,26,31,03,07,04,16,,,,,,1.41,1.13,0.84*01
$GLGSA,A,3,76,,,,,,,,,,,,1.41,1.13,0.84*14
$GPGSV,3,1,10,04,87,266,20,16,62,053,28,09,55,309,38,51,43,199,*74
$GPGSV,3,2,10,27,36,127,,26,29,050,29,07,28,285,27,08,22,162,*76
$GPGSV,3,3,10,03,22,207,19,31,19,080,22*74
$GLGSV,2,1,07,67,75,279,,66,39,167,,78,33,252,16,76,28,040,16*61
$GLGSV,2,2,07,68,28,328,,86,06,071,,85,04,021,*5B
$GNRMC,193129.000,A,3850.2353,N,09447.3403,W,1.27,152.99,261124,,,D*65
$GNVTG,152.99,T,,M,1.27,N,2.36,K,D*23
$GNGGA,193130.000,3850.2351,N,09447.3401,W,2,8,1.13,318.3,M,-30.0,M,,*75
$GPGSA,A,3,09,26,31,03,07,04,16,,,,,,1.41,1.13,0.84*01
$GLGSA,A,3,76,,,,,,,,,,,,1.41,1.13,0.84*14
$GNRMC,193130.000,A,3850.2351,N,09447.3401,W,0.41,152.99,261124,,,D*6C
$GNVTG,152.99,T,,M,0.41,N,0.76,K,D*24
$GNGGA,193131.000,3850.2350,N,09447.3400,W,2,8,1.13,318.4,M,-30.0,M,,*73
$GPGSA,A,3,09,26,31,03,07,04,16,,,,,,1.41,1.13,0.84*01
$GLGSA,A,3,76,,,,,,,,,,,,1.41,1.13,0.84*14
$GNRMC,193131.000,A,3850.2350,N,09447.3400,W,0.26,152.99,261124,,,D*6C
$GNVTG,152.99,T,,M,0.26,N,0.48,K,D*28
$GNGGA,193132.000,3850.2349,N,09447.3399,W,2,8,1.13,318.4,M,-30.0,M,,*7F
$GPGSA,A,3,09,26,31,03,07,04,16,,,,,,1.41,1.13,0.84*01
$GLGSA,A,3,76,,,,,,,,,,,,1.41,1.13,0.84*14
$GNRMC,193132.000,A,3850.2349,N,09447.3399,W,0.51,152.99,261124,,,D*60
$GNVTG,152.99,T,,M,0.51,N,0.94,K,D*29
$GNGGA,193133.000,3850.2350,N,09447.3398,W,2,8,1.13,318.3,M,-30.0,M,,*70
$GPGSA,A,3,09,26,31,03,07,04,16,,,,,,1.41,1.13,0.84*01
$GLGSA,A,3,76,,,,,,,,,,,,1.41,1.13,0.84*14
$GNRMC,193133.000,A,3850.2350,N,09447.3398,W,0.26,152.99,261124,,,D*68
$GNVTG,152.99,T,,M,0.26,N,0.48,K,D*28
$GNGGA,193134.000,3850.2349,N,09447.3397,W,2,8,1.13,318.3,M,-30.0,M,,*70
$GPGSA,A,3,09,26,31,03,07,04,16,,,,,,1.41,1.13,0.84*01
$GLGSA,A,3,76,,,,,,,,,,,,1.41,1.13,0.84*14
$GPGSV,3,1,10,04,87,266,22,16,62,053,28,09,55,309,38,27,36,127,*70
$GPGSV,3,2,10,48,30,231,,26,29,050,29,07,28,285,26,08,22,162,*7C
$GPGSV,3,3,10,03,22,207,19,31,19,080,23*75
$GLGSV,2,1,07,67,75,279,,66,39,167,,78,33,252,15,68,28,328,*67
$GLGSV,2,2,07,76,27,041,16,86,06,071,,85,04,021,*50
$GNRMC,193134.000,A,3850.2349,N,09447.3397,W,0.15,152.99,261124,,,D*68
$GNVTG,152.99,T,,M,0.15,N,0.27,K,D*21
$GNGGA,193135.000,3850.2347,N,09447.3397,W,2,8,1.13,318.4,M,-30.0,M,,*78
$GPGSA,A,3,09,26,31,03,07,04,16,,,,,,1.41,1.13,0.84*01
$GLGSA,A,3,76,,,,,,,,,,,,1.41,1.13,0.84*14
$GNRMC,193135.000,A,3850.2347,N,09447.3397,W,0.38,152.99,261124,,,D*68
$GNVTG,152.99,T,,M,0.38,N,0.70,K,D*2C
$GNGGA,193136.000,3850.2349,N,09447.3397,W,2,8,1.13,318.4,M,-30.0,M,,*75
$GPGSA,A,3,09,26,31,03,07,04,16,,,,,,1.41,1.13,0.84*01
$GLGSA,A,3,76,,,,,,,,,,,,1.41,1.13,0.84*14
$GNRMC,193136.000,A,3850.2349,N,09447.3397,W,1.11,352.26,261124,,,D*69
$GNVTG,352.26,T,,M,1.11,N,2.05,K,D*20
$GNGGA,193137.000,3850.2352,N,09447.3399,W,2,8,1.13,318.4,M,-30.0,M,,*70
$GPGSA,A,3,09,26,31,03,07,04,16,,,,,,1.41,1.13,0.84*01
$GLGSA,A,3,76,,,,,,,,,,,,1.41,1.13,0.84*14
$GNRMC,193137.000,A,3850.2352,N,09447.3399,W,0.15,352.26,261124,,,D*69
$GNVTG,352.26,T,,M,0.15,N,0.28,K,D*28
$GNGGA,193138.000,3850.2348,N,09447.3399,W,2,8,1.13,318.4,M,-30.0,M,,*74
$GPGSA,A,3,09,26,31,03,07,04,16,,,,,,1.41,1.13,0.84*01
$GLGSA,A,3,76,,,,,,,,,,,,1.41,1.13,0.84*14
$GNRMC,193138.000,A,3850.2348,N,09447.3399,W,1.98,173.03,261124,,,D*6F
$GNVTG,173.03,T,,M,1.98,N,3.68,K,D*2D
$GNGGA,193139.000,3850.2341,N,09447.3399,W,2,8,1.13,318.3,M,-30.0,M,,*7B
$GPGSA,A,3,09,26,31,03,07,04,16,,,,,,1.41,1.13,0.84*01
$GLGSA,A,3,76,,,,,,,,,,,,1.41,1.13,0.84*14
$GPGSV,3,1,10,04,87,266,20,16,62,053,29,09,55,309,38,27,36,127,*73
$GPGSV,3,2,10,48,30,231,,26,29,050,29,07,28,285,25,08,22,162,*7F
$GPGSV,3,3,10,03,22,207,19,31,19,080,23*75
$GLGSV,2,1,07,67,75,279,,66,39,167,,78,34,253,16,68,28,328,*62
$GLGSV,2,2,07,76,27,041,16,86,06,071,,85,04,021,*50
$GNRMC,193139.000,A,3850.2341,N,09447.3399,W,1.17,159.63,261124,,,D*6E
$GNVTG,159.63,T,,M,1.17,N,2.17,K,D*2D
$GNGGA,193140.000,3850.2338,N,09447.3399,W,2,8,1.13,318.2,M,-30.0,M,,*7A
$GPGSA,A,3,09,26,31,03,07,04,16,,,,,,1.41,1.13,0.84*01
$GLGSA,A,3,76,,,,,,,,,,,,1.41,1.13,0.84*14
$GNRMC,193140.000,A,3850.2338,N,09447.3399,W,0.74,176.88,261124,,,D*62
$GNVTG,176.88,T,,M,0.74,N,1.37,K,D*20
$GNGGA,193141.000,3850.2339,N,09447.3400,W,2,8,1.13,318.2,M,-30.0,M,,*7D
$GPGSA,A,3,09,26,31,03,07,04,16,,,,,,1.41,1.13,0.84*01
$GLGSA,A,3,76,,,,,,,,,,,,1.41,1.13,0.84*14
$GNRMC,193141.000,A,3850.2339,N,09447.3400,W,0.72,169.38,261124,,,D*66
$GNVTG,169.38,T,,M,0.72,N,1.33,K,D*27
$GNGGA,193142.000,3850.2339,N,09447.3401,W,2,9,0.95,318.2,M,-30.0,M,,*71
$GPGSA,A,3,09,26,31,03,07,04,27,16,,,,,1.27,0.95,0.83*0C
$GLGSA,A,3,76,,,,,,,,,,,,1.27,0.95,0.83*1C
$GNRMC,193142.000,A,3850.2339,N,09447.3401,W,0.70,175.92,261124,,,D*6B
$GNVTG,175.92,T,,M,0.70,N,1.30,K,D*2B$GNGGA,193143.000,3850.2339,N,09447.3401,W,2,9,0.95,318.2,M,-30.0,M,,*70
$GPGSA,A,3,09,26,31,03,07,04,27,16,,,,,1.27,0.95,0.83*0C
$GLGSA,A,3,76,,,,,,,,,,,,1.27,0.95,0.83*1C
$GNRMC,193143.000,A,3850.2339,N,09447.3401,W,0.67,170.88,261124,,,D*62
$GNVTG,170.88,T,,M,0.67,N,1.23,K,D*21$GNGGA,193144.000,3850.2337,N,09447.3401,W,2,9,0.95,318.2,M,-30.0,M,,*79
$GPGSA,A,3,09,26,31,03,07,04,27,16,,,,,1.27,0.95,0.83*0C
$GLGSA,A,3,76,,,,,,,,,,,,1.27,0.95,0.83*1C
$GPGSV,3,1,10,04,87,266,20,16,62,053,29,09,55,309,37,27,36,127,17*7A
$GPGSV,3,2,10,26,29,050,29,07,28,285,25,08,22,162,,03,22,207,17*70
$GPGSV,3,3,10,31,19,080,23,34,,,*4C
$GLGSV,2,1,07,67,75,279,,66,39,167,,78,34,253,15,68,28,328,*61
$GLGSV,2,2,07,76,27,041,16,86,07,070,,85,04,021,*50
$GNRMC,193144.000,A,3850.2337,N,09447.3401,W,0.36,170.88,261124,,,D*6F
$GNVTG,170.88,T,,M,0.36,N,0.66,K,D*25
$GNGGA,193145.000,3850.2337,N,09447.3401,W,2,9,0.95,318.2,M,-30.0,M,,*78
$GPGSA,A,3,09,26,31,03,07,04,27,16,,,,,1.27,0.95,0.83*0C
$GLGSA,A,3,76,,,,,,,,,,,,1.27,0.95,0.83*1C
$GNRMC,193145.000,A,3850.2337,N,09447.3401,W,0.63,335.45,261124,,,D*6C
$GNVTG,335.45,T,,M,0.63,N,1.18,K,D*2F$GNGGA,193146.000,3850.2338,N,09447.3402,W,2,9,0.96,318.4,M,-30.0,M,,*72
$GPGSA,A,3,09,26,31,03,07,04,27,16,,,,,1.27,0.96,0.83*0F
$GLGSA,A,3,76,,,,,,,,,,,,1.27,0.96,0.83*1F
$GNRMC,193146.000,A,3850.2338,N,09447.3402,W,0.33,335.45,261124,,,D*66
$GNVTG,335.45,T,,M,0.33,N,0.62,K,D*26$GNGGA,193147.000,3850.2337,N,09447.3402,W,2,10,0.85,318.4,M,-30.0,M,,*46
$GPGSA,A,3,08,09,26,31,03,07,04,27,16,,,,1.19,0.85,0.83*08
$GLGSA,A,3,76,,,,,,,,,,,,1.19,0.85,0.83*10
$GNRMC,193147.000,A,3850.2337,N,09447.3402,W,0.39,335.45,261124,,,D*62
$GNVTG,335.45,T,,M,0.39,N,0.73,K,D*2C
$GNGGA,193148.000,3850.2337,N,09447.3402,W,2,10,0.85,318.4,M,-30.0,M,,*49
$GPGSA,A,3,08,09,26,31,03,07,04,27,16,,,,1.19,0.85,0.83*08
$GLGSA,A,3,76,,,,,,,,,,,,1.19,0.85,0.83*10
$GNRMC,193148.000,A,3850.2337,N,09447.3402,W,0.31,335.45,261124,,,D*65
$GNVTG,335.45,T,,M,0.31,N,0.58,K,D*2D
$GNGGA,193149.000,3850.2337,N,09447.3401,W,2,10,0.85,318.4,M,-30.0,M,,*4B
$GPGSA,A,3,08,09,26,31,03,07,04,27,16,,,,1.19,0.85,0.83*08
$GLGSA,A,3,76,,,,,,,,,,,,1.19,0.85,0.83*10
$GPGSV,3,1,10,04,87,266,22,16,62,053,29,09,55,309,37,27,36,127,15*7A
$GPGSV,3,2,10,26,29,050,29,07,28,285,25,08,22,162,15,03,22,207,17*74
$GPGSV,3,3,10,31,19,080,22,35,,,*4C
$GLGSV,2,1,07,67,75,279,,66,39,167,,78,34,253,14,68,28,328,*60
$GLGSV,2,2,07,76,27,041,16,86,07,070,,85,04,021,*50
$GNRMC,193149.000,A,3850.2337,N,09447.3401,W,0.14,335.45,261124,,,D*60
$GNVTG,335.45,T,,M,0.14,N,0.26,K,D*23
$GNGGA,193150.000,3850.2336,N,09447.3400,W,2,10,0.85,318.3,M,-30.0,M,,*44
$GPGSA,A,3,08,09,26,31,03,07,04,27,16,,,,1.19,0.85,0.83*08
$GLGSA,A,3,76,,,,,,,,,,,,1.19,0.85,0.83*10
$GNRMC,193150.000,A,3850.2336,N,09447.3400,W,1.22,352.84,261124,,,D*60
$GNVTG,352.84,T,,M,1.22,N,2.26,K,D*29
$GNGGA,193151.000,3850.2338,N,09447.3401,W,2,10,0.85,318.5,M,-30.0,M,,*4C
$GPGSA,A,3,08,09,26,31,03,07,04,27,16,,,,1.19,0.85,0.83*08
$GLGSA,A,3,76,,,,,,,,,,,,1.19,0.85,0.83*10
$GNRMC,193151.000,A,3850.2338,N,09447.3401,W,1.12,344.46,261124,,,D*64
$GNVTG,344.46,T,,M,1.12,N,2.08,K,D*2F
$GNGGA,193152.000,3850.2341,N,09447.3402,W,2,10,0.85,318.7,M,-30.0,M,,*40
$GPGSA,A,3,08,09,26,31,03,07,04,27,16,,,,1.19,0.85,0.83*08
$GLGSA,A,3,76,,,,,,,,,,,,1.19,0.85,0.83*10
$GNRMC,193152.000,A,3850.2341,N,09447.3402,W,0.72,344.10,261124,,,D*6E
$GNVTG,344.10,T,,M,0.72,N,1.33,K,D*20
$GNGGA,193153.000,3850.2342,N,09447.3403,W,2,10,0.85,319.0,M,-30.0,M,,*45
$GPGSA,A,3,08,09,26,31,03,07,04,27,16,,,,1.19,0.85,0.83*08
$GLGSA,A,3,76,,,,,,,,,,,,1.19,0.85,0.83*10
$GNRMC,193153.000,A,3850.2342,N,09447.3403,W,0.23,344.10,261124,,,D*69
$GNVTG,344.10,T,,M,0.23,N,0.42,K,D*23
$GNGGA,193154.000,3850.2343,N,09447.3403,W,2,10,0.85,319.0,M,-30.0,M,,*43
$GPGSA,A,3,08,09,26,31,03,07,04,27,16,,,,1.19,0.85,0.83*08
$GLGSA,A,3,76,,,,,,,,,,,,1.19,0.85,0.83*10
$GPGSV,3,1,10,04,87,266,19,16,62,053,28,09,55,309,37,27,36,127,13*75
$GPGSV,3,2,10,26,29,050,29,07,28,285,24,08,22,162,16,03,22,207,18*79
$GPGSV,3,3,10,31,19,080,22,35,,,*4C
$GLGSV,2,1,07,67,75,279,,66,39,167,,78,34,253,,68,28,328,*65
$GLGSV,2,2,07,76,27,041,16,86,07,070,,85,04,021,*50
$GNRMC,193154.000,A,3850.2343,N,09447.3403,W,1.15,159.17,261124,,,D*62
$GNVTG,159.17,T,,M,1.15,N,2.13,K,D*28
$GNGGA,193155.000,3850.2344,N,09447.3400,W,2,10,0.85,319.2,M,-30.0,M,,*44
$GPGSA,A,3,08,09,26,31,03,07,04,27,16,,,,1.19,0.85,0.83*08
$GLGSA,A,3,76,,,,,,,,,,,,1.19,0.85,0.83*10
$GNRMC,193155.000,A,3850.2344,N,09447.3400,W,0.63,82.22,261124,,,D*56
$GNVTG,82.22,T,,M,0.63,N,1.17,K,D*1E
$GNGGA,193156.000,3850.2346,N,09447.3399,W,2,10,0.85,319.3,M,-30.0,M,,*43
$GPGSA,A,3,08,09,26,31,03,07,04,27,16,,,,1.19,0.85,0.83*08
$GLGSA,A,3,76,,,,,,,,,,,,1.19,0.85,0.83*10
$GNRMC,193156.000,A,3850.2346,N,09447.3399,W,0.65,37.76,261124,,,D*59
$GNVTG,37.76,T,,M,0.65,N,1.20,K,D*13
$GNGGA,193157.000,3850.2347,N,09447.3399,W,2,10,0.85,319.4,M,-30.0,M,,*44
$GPGSA,A,3,08,09,26,31,03,07,04,27,16,,,,1.19,0.85,0.83*08
$GLGSA,A,3,76,,,,,,,,,,,,1.19,0.85,0.83*10
$GNRMC,193157.000,A,3850.2347,N,09447.3399,W,0.68,22.71,261124,,,D*57
$GNVTG,22.71,T,,M,0.68,N,1.27,K,D*1A
$GNGGA,193158.000,3850.2351,N,09447.3399,W,2,10,0.85,319.6,M,-30.0,M,,*4E
$GPGSA,A,3,08,09,26,31,03,07,04,27,16,,,,1.19,0.85,0.83*08
$GLGSA,A,3,76,,,,,,,,,,,,1.19,0.85,0.83*10
$GNRMC,193158.000,A,3850.2351,N,09447.3399,W,0.49,22.71,261124,,,D*5C
$GNVTG,22.71,T,,M,0.49,N,0.91,K,D*15
$GNGGA,193159.000,3850.2353,N,09447.3401,W,2,10,0.85,319.6,M,-30.0,M,,*4B
$GPGSA,A,3,08,09,26,31,03,07,04,27,16,,,,1.19,0.85,0.83*08
$GLGSA,A,3,76,,,,,,,,,,,,1.19,0.85,0.83*10
$GPGSV,3,1,10,04,87,266,20,16,62,053,28,09,55,309,37,27,36,127,14*78
$GPGSV,3,2,10,26,29,050,29,07,28,285,23,08,22,162,16,03,22,207,16*70
$GPGSV,3,3,10,31,19,080,23,36,,,*4E
$GLGSV,2,1,07,67,75,279,,66,39,167,17,78,34,253,,68,28,328,*63
$GLGSV,2,2,07,76,27,041,18,86,07,070,,85,04,021,*5E
$GNRMC,193159.000,A,3850.2353,N,09447.3401,W,0.33,22.71,261124,,,D*54
$GNVTG,22.71,T,,M,0.33,N,0.61,K,D*17
$GNGGA,193200.000,3850.2353,N,09447.3402,W,2,9,0.92,319.5,M,-30.0,M,,*7A
$GPGSA,A,3,08,09,26,31,03,07,04,16,,,,,1.24,0.92,0.84*02
$GLGSA,A,3,76,,,,,,,,,,,,1.24,0.92,0.84*1F
$GNRMC,193200.000,A,3850.2353,N,09447.3402,W,0.88,169.63,261124,,,D*65
$GNVTG,169.63,T,,M,0.88,N,1.63,K,D*29$GNGGA,193201.000,3850.2351,N,09447.3402,W,2,9,0.91,319.4,M,-30.0,M,,*7B
$GPGSA,A,3,08,09,26,31,03,07,04,16,,,,,1.24,0.91,0.84*01
$GLGSA,A,3,76,,,,,,,,,,,,1.24,0.91,0.84*1C
$GNRMC,193201.000,A,3850.2351,N,09447.3402,W,1.04,171.10,261124,,,D*6E
$GNVTG,171.10,T,,M,1.04,N,1.93,K,D*2E$GNGGA,193202.000,3850.2348,N,09447.3402,W,2,9,0.92,319.3,M,-30.0,M,,*74
$GPGSA,A,3,08,09,26,31,03,07,04,16,,,,,1.24,0.92,0.84*02
$GLGSA,A,3,76,,,,,,,,,,,,1.24,0.92,0.84*1F
$GNRMC,193202.000,A,3850.2348,N,09447.3402,W,0.22,171.10,261124,,,D*60
$GNVTG,171.10,T,,M,0.22,N,0.41,K,D*25$GNGGA,193203.000,3850.2346,N,09447.3402,W,2,9,0.91,319.3,M,-30.0,M,,*78
$GPGSA,A,3,08,09,26,31,03,07,04,16,,,,,1.24,0.91,0.84*01
$GLGSA,A,3,76,,,,,,,,,,,,1.24,0.91,0.84*1C
$GNRMC,193203.000,A,3850.2346,N,09447.3402,W,2.04,345.53,261124,,,D*6B
$GNVTG,345.53,T,,M,2.04,N,3.78,K,D*28$GNGGA,193204.000,3850.2345,N,09447.3405,W,2,9,0.91,319.2,M,-30.0,M,,*7A
$GPGSA,A,3,08,09,26,31,03,07,04,16,,,,,1.24,0.91,0.84*01
$GLGSA,A,3,76,,,,,,,,,,,,1.24,0.91,0.84*1C
$GPGSV,3,1,10,04,87,266,21,16,62,053,27,09,55,309,37,27,36,127,*73
$GPGSV,3,2,10,26,29,050,29,07,28,285,24,08,22,162,17,03,22,207,15*75
$GPGSV,3,3,10,31,19,080,24,38,,,*47
$GLGSV,2,1,07,67,75,279,,66,39,167,,78,34,253,,68,28,328,*65
$GLGSV,2,2,07,76,27,041,18,86,07,070,,85,04,021,*5E
$GNRMC,193204.000,A,3850.2345,N,09447.3405,W,2.84,348.40,261124,,,D*6F
$GNVTG,348.40,T,,M,2.84,N,5.26,K,D*22
$GNGGA,193205.000,3850.2348,N,09447.3407,W,2,9,0.92,319.2,M,-30.0,M,,*77
$GPGSA,A,3,08,09,26,31,03,07,04,16,,,,,1.24,0.92,0.84*02
$GLGSA,A,3,76,,,,,,,,,,,,1.24,0.92,0.84*1F
$GNRMC,193205.000,A,3850.2348,N,09447.3407,W,0.30,348.40,261124,,,D*6C
$GNVTG,348.40,T,,M,0.30,N,0.55,K,D*2E
$GNGGA,193206.000,3850.2348,N,09447.3407,W,2,9,0.92,319.2,M,-30.0,M,,*74
$GPGSA,A,3,08,09,26,31,03,07,04,16,,,,,1.24,0.92,0.84*02
$GLGSA,A,3,76,,,,,,,,,,,,1.24,0.92,0.84*1F
$GNRMC,193206.000,A,3850.2348,N,09447.3407,W,0.46,348.40,261124,,,D*6E
$GNVTG,348.40,T,,M,0.46,N,0.86,K,D*21
$GNGGA,193207.000,3850.2349,N,09447.3406,W,2,8,1.03,319.2,M,-30.0,M,,*7D
$GPGSA,A,3,08,09,26,31,07,04,16,,,,,,1.33,1.03,0.85*0F
$GLGSA,A,3,76,,,,,,,,,,,,1.33,1.03,0.85*11
$GNRMC,193207.000,A,3850.2349,N,09447.3406,W,0.52,348.40,261124,,,D*6A
$GNVTG,348.40,T,,M,0.52,N,0.96,K,D*25
$GNGGA,193208.000,3850.2349,N,09447.3407,W,2,8,1.03,319.1,M,-30.0,M,,*70
$GPGSA,A,3,08,09,26,31,07,04,16,,,,,,1.33,1.03,0.85*0F
$GLGSA,A,3,76,,,,,,,,,,,,1.33,1.03,0.85*11
$GNRMC,193208.000,A,3850.2349,N,09447.3407,W,1.16,351.69,261124,,,D*66
$GNVTG,351.69,T,,M,1.16,N,2.15,K,D*2E
$GNGGA,193209.000,3850.2348,N,09447.3407,W,2,8,1.03,319.1,M,-30.0,M,,*70
$GPGSA,A,3,08,09,26,31,07,04,16,,,,,,1.33,1.03,0.85*0F
$GLGSA,A,3,76,,,,,,,,,,,,1.33,1.03,0.85*11
$GPGSV,3,1,10,04,87,266,23,16,62,053,26,09,55,309,37,27,36,127,*70
$GPGSV,3,2,10,26,29,050,29,07,28,285,24,08,22,162,17,03,22,207,*71
$GPGSV,3,3,10,31,19,080,24,41,,,*49
$GLGSV,2,1,07,67,75,279,,66,39,167,,78,34,253,,68,28,328,*65
$GLGSV,2,2,07,76,27,041,18,86,07,070,,85,04,021,*5E
$GNRMC,193209.000,A,3850.2348,N,09447.3407,W,0.21,351.69,261124,,,D*63
$GNVTG,351.69,T,,M,0.21,N,0.39,K,D*27
$GNGGA,193210.000,3850.2349,N,09447.3407,W,2,8,1.03,319.1,M,-30.0,M,,*79
$GPGSA,A,3,08,09,26,31,07,04,16,,,,,,1.33,1.03,0.85*0F
$GLGSA,A,3,76,,,,,,,,,,,,1.33,1.03,0.85*11
$GNRMC,193210.000,A,3850.2349,N,09447.3407,W,1.80,354.57,261124,,,D*68
$GNVTG,354.57,T,,M,1.80,N,3.34,K,D*2B
$GNGGA,193211.000,3850.2353,N,09447.3409,W,2,8,1.03,319.1,M,-30.0,M,,*7D
$GPGSA,A,3,08,09,26,31,07,04,16,,,,,,1.33,1.03,0.85*0F
$GLGSA,A,3,76,,,,,,,,,,,,1.33,1.03,0.85*11
$GNRMC,193211.000,A,3850.2353,N,09447.3409,W,0.35,354.57,261124,,,D*63
$GNVTG,354.57,T,,M,0.35,N,0.64,K,D*22
$GNGGA,193212.000,3850.2353,N,09447.3409,W,2,8,1.03,319.1,M,-30.0,M,,*7E
$GPGSA,A,3,08,09,26,31,07,04,16,,,,,,1.33,1.03,0.85*0F
$GLGSA,A,3,76,,,,,,,,,,,,1.33,1.03,0.85*11
$GNRMC,193212.000,A,3850.2353,N,09447.3409,W,0.71,157.72,261124,,,D*66
$GNVTG,157.72,T,,M,0.71,N,1.32,K,D*26
$GNGGA,193213.000,3850.2351,N,09447.3408,W,2,8,1.03,319.1,M,-30.0,M,,*7C
$GPGSA,A,3,08,09,26,31,07,04,16,,,,,,1.33,1.03,0.85*0F
$GLGSA,A,3,76,,,,,,,,,,,,1.33,1.03,0.85*11
$GNRMC,193213.000,A,3850.2351,N,09447.3408,W,1.20,167.44,261124,,,D*67
$GNVTG,167.44,T,,M,1.20,N,2.23,K,D*26
$GNGGA,193214.000,3850.2346,N,09447.3407,W,2,8,1.03,319.0,M,-30.0,M,,*73
$GPGSA,A,3,08,09,26,31,07,04,16,,,,,,1.33,1.03,0.85*0F
$GLGSA,A,3,76,,,,,,,,,,,,1.33,1.03,0.85*11
$GPGSV,3,1,10,04,87,266,25,16,62,053,26,09,55,309,37,27,36,127,14*73
$GPGSV,3,2,10,26,29,050,29,07,28,285,24,08,22,162,17,03,22,207,*71
$GPGSV,3,3,10,31,19,080,25,43,,,*4A
$GLGSV,2,1,07,67,75,279,,66,39,167,,78,34,253,,68,28,328,*65
$GLGSV,2,2,07,76,27,041,18,86,07,070,,85,04,021,*5E
$GNRMC,193214.000,A,3850.2346,N,09447.3407,W,0.19,167.44,261124,,,D*62
$GNVTG,167.44,T,,M,0.19,N,0.36,K,D*2B
$GNGGA,193215.000,3850.2343,N,09447.3409,W,2,9,0.95,319.0,M,-30.0,M,,*76
$GPGSA,A,3,08,09,26,31,07,04,27,16,,,,,1.27,0.95,0.84*00
$GLGSA,A,3,76,,,,,,,,,,,,1.27,0.95,0.84*1B
$GNRMC,193215.000,A,3850.2343,N,09447.3409,W,1.00,300.54,261124,,,D*63
$GNVTG,300.54,T,,M,1.00,N,1.86,K,D*2A
$GNGGA,193216.000,3850.2345,N,09447.3411,W,2,9,0.95,319.2,M,-30.0,M,,*78
$GPGSA,A,3,08,09,26,31,07,04,27,16,,,,,1.27,0.95,0.84*00
$GLGSA,A,3,76,,,,,,,,,,,,1.27,0.95,0.84*1B
$GNRMC,193216.000,A,3850.2345,N,09447.3411,W,1.86,347.23,261124,,,D*62
$GNVTG,347.23,T,,M,1.86,N,3.44,K,D*2B$GNGGA,193217.000,3850.2351,N,09447.3413,W,2,9,0.95,319.4,M,-30.0,M,,*78
$GPGSA,A,3,08,09,26,31,07,04,27,16,,,,,1.27,0.95,0.84*00
$GLGSA,A,3,76,,,,,,,,,,,,1.27,0.95,0.84*1B
$GNRMC,193217.000,A,3850.2351,N,09447.3413,W,0.45,347.23,261124,,,D*6A
$GNVTG,347.23,T,,M,0.45,N,0.83,K,D*2D$GNGGA,193218.000,3850.2350,N,09447.3414,W,2,8,1.03,319.4,M,-30.0,M,,*7E
$GPGSA,A,3,08,09,26,31,07,04,16,,,,,,1.33,1.03,0.85*0F
$GLGSA,A,3,76,,,,,,,,,,,,1.33,1.03,0.85*11
$GNRMC,193218.000,A,3850.2350,N,09447.3414,W,1.44,168.27,261124,,,D*68
$GNVTG,168.27,T,,M,1.44,N,2.67,K,D*2E
$GNGGA,193219.000,3850.2344,N,09447.3413,W,2,8,1.03,319.4,M,-30.0,M,,*7D
$GPGSA,A,3,08,09,26,31,07,04,16,,,,,,1.33,1.03,0.85*0F
$GLGSA,A,3,76,,,,,,,,,,,,1.33,1.03,0.85*11
$GPGSV,3,1,10,04,87,266,25,16,62,053,26,09,55,309,37,27,36,127,*76
$GPGSV,3,2,10,26,29,050,29,07,28,285,24,08,22,162,17,03,21,207,*72
$GPGSV,3,3,10,31,19,080,25,43,,,*4A
$GLGSV,2,1,07,67,75,279,,66,39,167,,78,34,253,,68,28,328,*65
$GLGSV,2,2,07,76,27,041,18,86,07,070,,85,04,021,*5E
$GNRMC,193219.000,A,3850.2344,N,09447.3413,W,1.47,165.33,261124,,,D*60
$GNVTG,165.33,T,,M,1.47,N,2.73,K,D*20
$GNGGA,193220.000,3850.2338,N,09447.3412,W,2,8,1.03,319.5,M,-30.0,M,,*7C
$GPGSA,A,3,08,09,26,31,07,04,16,,,,,,1.33,1.03,0.85*0F
$GLGSA,A,3,76,,,,,,,,,,,,1.33,1.03,0.85*11
$GNRMC,193220.000,A,3850.2338,N,09447.3412,W,0.17,165.33,261124,,,D*64
$GNVTG,165.33,T,,M,0.17,N,0.31,K,D*20
$GNGGA,193221.000,3850.2339,N,09447.3411,W,2,8,1.03,319.4,M,-30.0,M,,*7E
$GPGSA,A,3,08,09,26,31,07,04,16,,,,,,1.33,1.03,0.85*0F
$GLGSA,A,3,76,,,,,,,,,,,,1.33,1.03,0.85*11
$GNRMC,193221.000,A,3850.2339,N,09447.3411,W,0.34,165.33,261124,,,D*66
$GNVTG,165.33,T,,M,0.34,N,0.64,K,D*21
$GNGGA,193222.000,3850.2341,N,09447.3411,W,2,8,1.03,319.4,M,-30.0,M,,*72
$GPGSA,A,3,08,09,26,31,07,04,16,,,,,,1.33,1.03,0.85*0F
$GLGSA,A,3,76,,,,,,,,,,,,1.33,1.03,0.85*11
$GNRMC,193222.000,A,3850.2341,N,09447.3411,W,1.74,1.41,261124,,,D*69
$GNVTG,1.41,T,,M,1.74,N,3.23,K,D*22
$GNGGA,193223.000,3850.2346,N,09447.3412,W,2,9,0.95,319.4,M,-30.0,M,,*78
$GPGSA,A,3,08,09,26,31,07,04,27,16,,,,,1.27,0.95,0.84*00
$GLGSA,A,3,76,,,,,,,,,,,,1.27,0.95,0.84*1B
$GNRMC,193223.000,A,3850.2346,N,09447.3412,W,0.09,1.41,261124,,,D*67
$GNVTG,1.41,T,,M,0.09,N,0.17,K,D*2D
$GNGGA,193224.000,3850.2347,N,09447.3413,W,2,9,0.95,319.5,M,-30.0,M,,*7E
$GPGSA,A,3,08,09,26,31,07,04,27,16,,,,,1.27,0.95,0.84*00
$GLGSA,A,3,76,,,,,,,,,,,,1.27,0.95,0.84*1B
$GPGSV,3,1,10,04,87,247,25,16,62,053,26,09,55,309,37,27,36,127,13*77
$GPGSV,3,2,10,26,29,050,29,07,28,285,24,08,22,161,16,03,21,207,*70
$GPGSV,3,3,10,31,19,080,24,45,,,*4D
$GLGSV,2,1,07,67,75,279,,66,39,167,,78,34,253,,68,28,328,*65
$GLGSV,2,2,07,76,27,041,18,86,07,070,,85,04,021,*5E
$GNRMC,193224.000,A,3850.2347,N,09447.3413,W,1.13,186.85,261124,,,D*6C
$GNVTG,186.85,T,,M,1.13,N,2.09,K,D*2C
$GNGGA,193225.000,3850.2352,N,09447.3415,W,2,9,0.95,319.2,M,-30.0,M,,*7A
$GPGSA,A,3,08,09,26,31,07,04,27,16,,,,,1.27,0.95,0.84*00
$GLGSA,A,3,76,,,,,,,,,,,,1.27,0.95,0.84*1B
$GNRMC,193225.000,A,3850.2352,N,09447.3415,W,0.41,186.85,261124,,,D*69
$GNVTG,186.85,T,,M,0.41,N,0.76,K,D*20$GNGGA,193226.000,3850.2358,N,09447.3414,W,2,9,0.95,319.1,M,-30.0,M,,*71
$GPGSA,A,3,08,09,26,31,07,04,27,16,,,,,1.27,0.95,0.84*00
$GLGSA,A,3,76,,,,,,,,,,,,1.27,0.95,0.84*1B
$GNRMC,193226.000,A,3850.2358,N,09447.3414,W,2.66,356.44,261124,,,D*64
$GNVTG,356.44,T,,M,2.66,N,4.93,K,D*2A$GNGGA,193227.000,3850.2361,N,09447.3414,W,2,9,0.95,318.9,M,-30.0,M,,*73
$GPGSA,A,3,08,09,26,31,07,04,27,16,,,,,1.27,0.95,0.84*00
$GLGSA,A,3,76,,,,,,,,,,,,1.27,0.95,0.84*1B
$GNRMC,193227.000,A,3850.2361,N,09447.3414,W,2.65,359.97,261124,,,D*6D
$GNVTG,359.97,T,,M,2.65,N,4.90,K,D*2B$GNGGA,193228.000,3850.2363,N,09447.3415,W,2,9,0.95,318.7,M,-30.0,M,,*71
$GPGSA,A,3,08,09,26,31,07,04,27,16,,,,,1.27,0.95,0.84*00
$GLGSA,A,3,76,,,,,,,,,,,,1.27,0.95,0.84*1B
$GNRMC,193228.000,A,3850.2363,N,09447.3415,W,2.15,351.23,261124,,,D*61
$GNVTG,351.23,T,,M,2.15,N,3.98,K,D*24
$GNGGA,193229.000,3850.2369,N,09447.3420,W,2,9,0.95,318.4,M,-30.0,M,,*7F
$GPGSA,A,3,08,09,26,31,07,04,27,16,,,,,1.27,0.95,0.84*00
$GLGSA,A,3,76,,,,,,,,,,,,1.27,0.95,0.84*1B
$GPGSV,3,1,10,04,87,247,26,16,62,053,27,09,56,309,37,27,36,127,13*76
$GPGSV,3,2,10,26,29,050,29,07,28,285,25,08,22,161,16,03,21,207,*71
$GPGSV,3,3,10,31,19,080,23,46,,,*49
$GLGSV,2,1,07,67,75,279,,66,39,167,,78,34,253,,68,28,328,*65
$GLGSV,2,2,07,76,27,041,18,86,07,070,,85,04,021,*5E
$GNRMC,193229.000,A,3850.2369,N,09447.3420,W,0.59,11.86,261124,,,D*5E
$GNVTG,11.86,T,,M,0.59,N,1.10,K,D*14
$GNGGA,193230.000,3850.2368,N,09447.3416,W,2,9,0.95,318.2,M,-30.0,M,,*75
$GPGSA,A,3,08,09,26,31,07,04,27,16,,,,,1.27,0.95,0.84*00
$GLGSA,A,3,76,,,,,,,,,,,,1.27,0.95,0.84*1B
$GNRMC,193230.000,A,3850.2368,N,09447.3416,W,0.40,11.86,261124,,,D*5A
$GNVTG,11.86,T,,M,0.40,N,0.74,K,D*1F
$GNGGA,193231.000,3850.2369,N,09447.3414,W,2,8,1.03,318.1,M,-30.0,M,,*7B
$GPGSA,A,3,08,09,26,31,07,04,16,,,,,,1.33,1.03,0.85*0F
$GLGSA,A,3,76,,,,,,,,,,,,1.33,1.03,0.85*11
$GNRMC,193231.000,A,3850.2369,N,09447.3414,W,1.39,358.93,261124,,,D*6D
$GNVTG,358.93,T,,M,1.39,N,2.58,K,D*26
$GNGGA,193232.000,3850.2373,N,09447.3415,W,2,8,1.03,317.9,M,-30.0,M,,*75
$GPGSA,A,3,08,09,26,31,07,04,16,,,,,,1.33,1.03,0.85*0F
$GLGSA,A,3,76,,,,,,,,,,,,1.33,1.03,0.85*11
$GNRMC,193232.000,A,3850.2373,N,09447.3415,W,1.08,353.83,261124,,,D*6C
$GNVTG,353.83,T,,M,1.08,N,2.00,K,D*23
$GNGGA,193233.000,3850.2378,N,09447.3416,W,2,8,1.03,317.8,M,-30.0,M,,*7D
$GPGSA,A,3,08,09,26,31,07,04,16,,,,,,1.33,1.03,0.85*0F
$GLGSA,A,3,76,,,,,,,,,,,,1.33,1.03,0.85*11
$GNRMC,193233.000,A,3850.2378,N,09447.3416,W,0.05,353.83,261124,,,D*69
$GNVTG,353.83,T,,M,0.05,N,0.09,K,D*24
$GNGGA,193234.000,3850.2382,N,09447.3414,W,2,8,1.03,317.8,M,-30.0,M,,*7D
$GPGSA,A,3,08,09,26,31,07,04,16,,,,,,1.33,1.03,0.85*0F
$GLGSA,A,3,76,,,,,,,,,,,,1.33,1.03,0.85*11
$GPGSV,3,1,10,04,87,247,25,16,61,052,26,09,56,309,37,27,36,127,*74
$GPGSV,3,2,10,26,29,050,29,07,28,285,23,08,22,161,15,03,21,207,*74
$GPGSV,3,3,10,31,19,080,25,47,,,*4E
$GLGSV,2,1,07,67,75,279,,66,39,167,,78,34,253,,68,28,328,*65
$GLGSV,2,2,07,76,27,041,18,86,07,070,,85,04,021,*5E
$GNRMC,193234.000,A,3850.2382,N,09447.3414,W,0.89,26.94,261124,,,D*5A
$GNVTG,26.94,T,,M,0.89,N,1.64,K,D*1D
$GNGGA,193235.000,3850.2383,N,09447.3412,W,2,8,1.03,317.6,M,-30.0,M,,*75
$GPGSA,A,3,08,09,26,31,07,04,16,,,,,,1.33,1.03,0.85*0F
$GLGSA,A,3,76,,,,,,,,,,,,1.33,1.03,0.85*11
$GNRMC,193235.000,A,3850.2383,N,09447.3412,W,2.46,353.49,261124,,,D*6C
$GNVTG,353.49,T,,M,2.46,N,4.56,K,D*29
$GNGGA,193236.000,3850.2385,N,09447.3415,W,2,8,1.03,317.5,M,-30.0,M,,*74
$GPGSA,A,3,08,09,26,31,07,04,16,,,,,,1.33,1.03,0.85*0F
$GLGSA,A,3,76,,,,,,,,,,,,1.33,1.03,0.85*11
$GNRMC,193236.000,A,3850.2385,N,09447.3415,W,1.02,319.12,261124,,,D*6D
$GNVTG,319.12,T,,M,1.02,N,1.90,K,D*25
$GNGGA,193237.000,3850.2391,N,09447.3416,W,2,8,1.03,317.4,M,-30.0,M,,*72
$GPGSA,A,3,08,09,26,31,07,04,16,,,,,,1.33,1.03,0.85*0F
$GLGSA,A,3,76,,,,,,,,,,,,1.33,1.03,0.85*11
$GNRMC,193237.000,A,3850.2391,N,09447.3416,W,0.15,319.12,261124,,,D*6D
$GNVTG,319.12,T,,M,0.15,N,0.28,K,D*20
$GNGGA,193238.000,3850.2395,N,09447.3416,W,2,8,1.03,317.3,M,-30.0,M,,*7E
$GPGSA,A,3,08,09,26,31,07,04,16,,,,,,1.33,1.03,0.85*0F
$GLGSA,A,3,76,,,,,,,,,,,,1.33,1.03,0.85*11
$GNRMC,193238.000,A,3850.2395,N,09447.3416,W,0.47,319.12,261124,,,D*61
$GNVTG,319.12,T,,M,0.47,N,0.87,K,D*22
$GNGGA,193239.000,3850.2394,N,09447.3415,W,2,8,1.03,317.3,M,-30.0,M,,*7D
$GPGSA,A,3,08,09,26,31,07,04,16,,,,,,1.33,1.03,0.85*0F
$GLGSA,A,3,76,,,,,,,,,,,,1.33,1.03,0.85*11
$GPGSV,3,1,10,04,87,247,26,16,61,052,27,09,56,309,37,27,36,127,*76
$GPGSV,3,2,10,26,29,050,29,07,28,285,22,08,22,161,15,03,21,207,*75
$GPGSV,3,3,10,31,19,080,25,49,,,*40
$GLGSV,2,1,07,67,75,279,,66,39,167,,78,34,253,,68,28,328,*65
$GLGSV,2,2,07,76,27,041,18,86,07,070,,85,04,021,*5E
$GNRMC,193239.000,A,3850.2394,N,09447.3415,W,1.02,1.99,261124,,,D*6B
$GNVTG,1.99,T,,M,1.02,N,1.90,K,D*2C
$GNGGA,193240.000,3850.2398,N,09447.3415,W,2,8,1.03,317.2,M,-30.0,M,,*7E
$GPGSA,A,3,08,09,26,31,07,04,16,,,,,,1.33,1.03,0.85*0F
$GLGSA,A,3,76,,,,,,,,,,,,1.33,1.03,0.85*11
$GNRMC,193240.000,A,3850.2398,N,09447.3415,W,3.14,352.08,261124,,,D*61
$GNVTG,352.08,T,,M,3.14,N,5.82,K,D*23
$GNGGA,193241.000,3850.2393,N,09447.3418,W,2,8,1.03,316.9,M,-30.0,M,,*73
$GPGSA,A,3,08,09,26,31,07,04,16,,,,,,1.33,1.03,0.85*0F
$GLGSA,A,3,76,,,,,,,,,,,,1.33,1.03,0.85*11
$GNRMC,193241.000,A,3850.2393,N,09447.3418,W,2.68,349.05,261124,,,D*6B
$GNVTG,349.05,T,,M,2.68,N,4.97,K,D*2B
$GNGGA,193242.000,3850.2392,N,09447.3420,W,2,8,1.03,317.0,M,-30.0,M,,*72
$GPGSA,A,3,08,09,26,31,07,04,16,,,,,,1.33,1.03,0.85*0F
$GLGSA,A,3,76,,,,,,,,,,,,1.33,1.03,0.85*11
$GNRMC,193242.000,A,3850.2392,N,09447.3420,W,0.27,349.05,261124,,,D*6B
$GNVTG,349.05,T,,M,0.27,N,0.49,K,D*25
$GNGGA,193243.000,3850.2398,N,09447.3420,W,2,9,0.92,317.0,M,-30.0,M,,*71
$GPGSA,A,3,08,09,26,31,03,07,04,16,,,,,1.24,0.92,0.84*02
$GLGSA,A,3,76,,,,,,,,,,,,1.24,0.92,0.84*1F
$GNRMC,193243.000,A,3850.2398,N,09447.3420,W,1.14,143.87,261124,,,D*63
$GNVTG,143.87,T,,M,1.14,N,2.10,K,D*28$GNGGA,193244.000,3850.2392,N,09447.3418,W,2,9,0.92,317.0,M,-30.0,M,,*77
$GPGSA,A,3,08,09,26,31,03,07,04,16,,,,,1.24,0.92,0.84*02
$GLGSA,A,3,76,,,,,,,,,,,,1.24,0.92,0.84*1F
$GPGSV,3,1,10,04,87,247,24,16,61,052,27,09,56,309,37,27,36,126,*75
$GPGSV,3,2,10,07,28,285,22,26,28,050,29,08,22,161,16,03,21,207,19*7F
$GPGSV,3,3,10,31,19,080,25,49,,,*40
$GLGSV,2,1,07,67,75,279,,66,39,167,,78,34,253,,68,28,328,*65
$GLGSV,2,2,07,76,27,041,19,86,07,070,,85,04,021,*5F
$GNRMC,193244.000,A,3850.2392,N,09447.3418,W,0.54,143.87,261124,,,D*60
$GNVTG,143.87,T,,M,0.54,N,1.00,K,D*2F
$GNGGA,193245.000,3850.2388,N,09447.3418,W,2,9,0.92,316.9,M,-30.0,M,,*75
$GPGSA,A,3,08,09,26,31,03,07,04,16,,,,,1.24,0.92,0.84*02
$GLGSA,A,3,76,,,,,,,,,,,,1.24,0.92,0.84*1F
$GNRMC,193245.000,A,3850.2388,N,09447.3418,W,1.15,355.21,261124,,,D*67
$GNVTG,355.21,T,,M,1.15,N,2.12,K,D*22
$GNGGA,193246.000,3850.2387,N,09447.3418,W,2,9,0.92,316.9,M,-30.0,M,,*79
$GPGSA,A,3,08,09,26,31,03,07,04,16,,,,,1.24,0.92,0.84*02
$GLGSA,A,3,76,,,,,,,,,,,,1.24,0.92,0.84*1F
$GNRMC,193246.000,A,3850.2387,N,09447.3418,W,0.81,17.34,261124,,,D*56
$GNVTG,17.34,T,,M,0.81,N,1.51,K,D*1B
$GNGGA,193247.000,3850.2385,N,09447.3418,W,2,9,0.92,316.8,M,-30.0,M,,*7B
$GPGSA,A,3,08,09,26,31,03,07,04,16,,,,,1.24,0.92,0.84*02
$GLGSA,A,3,76,,,,,,,,,,,,1.24,0.92,0.84*1F
$GNRMC,193247.000,A,3850.2385,N,09447.3418,W,1.28,1.43,261124,,,D*60
$GNVTG,1.43,T,,M,1.28,N,2.38,K,D*22
$GNGGA,193248.000,3850.2388,N,09447.3419,W,2,9,0.92,317.0,M,-30.0,M,,*71
$GPGSA,A,3,08,09,26,31,03,07,04,16,,,,,1.24,0.92,0.84*02
$GLGSA,A,3,76,,,,,,,,,,,,1.24,0.92,0.84*1F
$GNRMC,193248.000,A,3850.2388,N,09447.3419,W,0.39,1.43,261124,,,D*62
$GNVTG,1.43,T,,M,0.39,N,0.73,K,D*2E
$GNGGA,193249.000,3850.2392,N,09447.3420,W,2,9,0.92,317.0,M,-30.0,M,,*71
$GPGSA,A,3,08,09,26,31,03,07,04,16,,,,,1.24,0.92,0.84*02
$GLGSA,A,3,76,,,,,,,,,,,,1.24,0.92,0.84*1F
$GPGSV,3,1,10,04,87,247,24,16,61,052,28,09,56,309,37,44,39,213,*75
$GPGSV,3,2,10,27,36,126,,07,28,285,20,26,28,050,29,08,22,161,15*76
$GPGSV,3,3,10,03,21,207,19,31,19,080,26*73
$GLGSV,2,1,07,67,75,279,,66,39,167,,78,34,253,,68,28,328,*65
$GLGSV,2,2,07,76,27,041,19,86,07,070,,85,04,021,17*59
$GNRMC,193249.000,A,3850.2392,N,09447.3420,W,1.21,162.52,261124,,,D*6E
$GNVTG,162.52,T,,M,1.21,N,2.24,K,D*22
$GNGGA,193250.000,3850.2392,N,09447.3419,W,2,9,0.92,317.0,M,-30.0,M,,*73
$GPGSA,A,3,08,09,26,31,03,07,04,16,,,,,1.24,0.92,0.84*02
$GLGSA,A,3,76,,,,,,,,,,,,1.24,0.92,0.84*1F
$GNRMC,193250.000,A,3850.2392,N,09447.3419,W,1.31,155.67,261124,,,D*6F
$GNVTG,155.67,T,,M,1.31,N,2.43,K,D*20$GNGGA,193251.000,3850.2386,N,09447.3417,W,2,9,0.92,316.8,M,-30.0,M,,*70
$GPGSA,A,3,08,09,26,31,03,07,04,16,,,,,1.24,0.92,0.84*02
$GLGSA,A,3,76,,,,,,,,,,,,1.24,0.92,0.84*1F
$GNRMC,193251.000,A,3850.2386,N,09447.3417,W,0.75,103.09,261124,,,D*6F
$GNVTG,103.09,T,,M,0.75,N,1.38,K,D*25$GNGGA,193252.000,3850.2388,N,09447.3417,W,2,9,0.92,317.3,M,-30.0,M,,*77
$GPGSA,A,3,08,09,26,31,03,07,04,16,,,,,1.24,0.92,0.84*02
$GLGSA,A,3,76,,,,,,,,,,,,1.24,0.92,0.84*1F
$GNRMC,193252.000,A,3850.2388,N,09447.3417,W,0.30,103.09,261124,,,D*63
$GNVTG,103.09,T,,M,0.30,N,0.55,K,D*2E$GNGGA,193253.000,3850.2390,N,09447.3419,W,2,9,0.92,317.4,M,-30.0,M,,*76
$GPGSA,A,3,08,09,26,31,03,07,04,16,,,,,1.24,0.92,0.84*02
$GLGSA,A,3,76,,,,,,,,,,,,1.24,0.92,0.84*1F
$GNRMC,193253.000,A,3850.2390,N,09447.3419,W,0.78,166.43,261124,,,D*64
$GNVTG,166.43,T,,M,0.78,N,1.45,K,D*2F$GNGGA,193254.000,3850.2391,N,09447.3419,W,2,9,0.92,317.6,M,-30.0,M,,*72
$GPGSA,A,3,08,09,26,31,03,07,04,16,,,,,1.24,0.92,0.84*02
$GLGSA,A,3,76,,,,,,,,,,,,1.24,0.92,0.84*1F
$GPGSV,3,1,10,04,87,247,24,16,61,052,26,09,56,309,37,44,39,213,*7B
$GPGSV,3,2,10,27,36,126,,07,28,285,20,26,28,050,29,08,22,161,16*75
$GPGSV,3,3,10,03,21,207,18,31,19,080,26*72
$GLGSV,2,1,07,67,75,279,,66,39,167,,78,34,253,,68,28,328,*65
$GLGSV,2,2,07,76,27,041,20,86,07,070,,85,04,021,17*53
$GNRMC,193254.000,A,3850.2391,N,09447.3419,W,0.77,159.04,261124,,,D*62
$GNVTG,159.04,T,,M,0.77,N,1.42,K,D*28
$GNGGA,193255.000,3850.2387,N,09447.3416,W,2,9,0.92,317.9,M,-30.0,M,,*74
$GPGSA,A,3,08,09,26,31,03,07,04,16,,,,,1.24,0.92,0.84*02
$GLGSA,A,3,76,,,,,,,,,,,,1.24,0.92,0.84*1F
$GNRMC,193255.000,A,3850.2387,N,09447.3416,W,1.18,359.89,261124,,,D*64
$GNVTG,359.89,T,,M,1.18,N,2.19,K,D*2A$GNGGA,193256.000,3850.2387,N,09447.3416,W,2,9,0.92,318.3,M,-30.0,M,,*72
$GPGSA,A,3,08,09,26,31,03,07,04,16,,,,,1.24,0.92,0.83*05
$GLGSA,A,3,76,,,,,,,,,,,,1.24,0.92,0.83*18
$GNRMC,193256.000,A,3850.2387,N,09447.3416,W,0.37,359.89,261124,,,D*6B
$GNVTG,359.89,T,,M,0.37,N,0.69,K,D*23
$GNGGA,193257.000,3850.2387,N,09447.3417,W,2,9,0.92,318.4,M,-30.0,M,,*75
$GPGSA,A,3,08,09,26,31,03,07,04,16,,,,,1.24,0.92,0.83*05
$GLGSA,A,3,76,,,,,,,,,,,,1.24,0.92,0.83*18
$GNRMC,193257.000,A,3850.2387,N,09447.3417,W,0.46,359.89,261124,,,D*6D
$GNVTG,359.89,T,,M,0.46,N,0.85,K,D*27$GNGGA,193258.000,3850.2384,N,09447.3416,W,2,9,0.92,318.4,M,-30.0,M,,*78
$GPGSA,A,3,08,09,26,31,03,07,04,16,,,,,1.24,0.92,0.83*05
$GLGSA,A,3,76,,,,,,,,,,,,1.24,0.92,0.83*18
$GNRMC,193258.000,A,3850.2384,N,09447.3416,W,1.27,163.57,261124,,,D*6E
$GNVTG,163.57,T,,M,1.27,N,2.35,K,D*20$GNGGA,193259.000,3850.2382,N,09447.3417,W,2,9,0.92,318.3,M,-30.0,M,,*79
$GPGSA,A,3,08,09,26,31,03,07,04,16,,,,,1.24,0.92,0.83*05
$GLGSA,A,3,76,,,,,,,,,,,,1.24,0.92,0.83*18
$GPGSV,3,1,10,04,87,247,24,16,61,052,25,09,56,309,38,44,39,213,*77
$GPGSV,3,2,10,27,36,126,,07,28,285,19,26,28,050,29,08,22,161,16*7F
$GPGSV,3,3,10,03,21,207,18,31,19,080,25*71
$GLGSV,2,1,07,67,75,279,,66,39,167,,78,34,253,,68,28,328,*65
$GLGSV,2,2,07,76,27,041,20,86,07,070,,85,04,021,17*53
$GNRMC,193259.000,A,3850.2382,N,09447.3417,W,0.23,163.57,261124,,,D*6D
$GNVTG,163.57,T,,M,0.23,N,0.42,K,D*27
$GNGGA,193300.000,3850.2380,N,09447.3415,W,2,9,0.92,318.2,M,-30.0,M,,*75
$GPGSA,A,3,08,09,26,31,03,07,04,16,,,,,1.24,0.92,0.83*05
$GLGSA,A,3,76,,,,,,,,,,,,1.24,0.92,0.83*18
$GNRMC,193300.000,A,3850.2380,N,09447.3415,W,0.58,163.57,261124,,,D*6C
$GNVTG,163.57,T,,M,0.58,N,1.07,K,D*2B$GNGGA,193301.000,3850.2382,N,09447.3416,W,2,9,0.92,318.0,M,-30.0,M,,*77
$GPGSA,A,3,08,09,26,31,03,07,04,16,,,,,1.24,0.92,0.83*05
$GLGSA,A,3,76,,,,,,,,,,,,1.24,0.92,0.83*18
$GNRMC,193301.000,A,3850.2382,N,09447.3416,W,0.35,163.57,261124,,,D*67
$GNVTG,163.57,T,,M,0.35,N,0.66,K,D*26$GNGGA,193302.000,3850.2381,N,09447.3417,W,2,9,0.92,318.0,M,-30.0,M,,*76
$GPGSA,A,3,08,09,26,31,03,07,04,16,,,,,1.24,0.92,0.83*05
$GLGSA,A,3,76,,,,,,,,,,,,1.24,0.92,0.83*18
$GNRMC,193302.000,A,3850.2381,N,09447.3417,W,0.58,163.57,261124,,,D*6D
$GNVTG,163.57,T,,M,0.58,N,1.08,K,D*24
$GNGGA,193303.000,3850.2377,N,09447.3417,W,2,10,0.85,317.8,M,-30.0,M,,*47
$GPGSA,A,3,08,09,26,31,03,07,04,27,16,,,,1.19,0.85,0.83*08
$GLGSA,A,3,76,,,,,,,,,,,,1.19,0.85,0.83*10
$GNRMC,193303.000,A,3850.2377,N,09447.3417,W,0.55,163.57,261124,,,D*68
$GNVTG,163.57,T,,M,0.55,N,1.01,K,D*20
$GNGGA,193304.000,3850.2378,N,09447.3418,W,2,10,0.85,317.8,M,-30.0,M,,*40
$GPGSA,A,3,08,09,26,31,03,07,04,27,16,,,,1.19,0.85,0.83*08
$GLGSA,A,3,76,,,,,,,,,,,,1.19,0.85,0.83*10
$GPGSV,3,1,10,04,87,247,24,16,61,052,26,09,56,309,38,44,39,213,*74
$GPGSV,3,2,10,27,36,126,13,07,28,285,22,26,28,050,29,08,22,161,14*77
$GPGSV,3,3,10,03,21,207,18,31,19,080,24*70
$GLGSV,2,1,07,67,75,279,,66,39,167,,78,34,253,,68,28,328,*65
$GLGSV,2,2,07,76,27,041,21,86,07,070,,85,04,021,17*52
$GNRMC,193304.000,A,3850.2378,N,09447.3418,W,0.14,163.57,261124,,,D*6A
$GNVTG,163.57,T,,M,0.14,N,0.26,K,D*21
$GNGGA,193305.000,3850.2379,N,09447.3418,W,2,10,0.85,317.7,M,-30.0,M,,*4F
$GPGSA,A,3,08,09,26,31,03,07,04,27,16,,,,1.19,0.85,0.83*08
$GLGSA,A,3,76,,,,,,,,,,,,1.19,0.85,0.83*10
$GNRMC,193305.000,A,3850.2379,N,09447.3418,W,0.58,163.57,261124,,,D*62
$GNVTG,163.57,T,,M,0.58,N,1.08,K,D*24
$GNGGA,193306.000,3850.2381,N,09447.3418,W,2,10,0.85,317.6,M,-30.0,M,,*4A
$GPGSA,A,3,08,09,26,31,03,07,04,27,16,,,,1.19,0.85,0.83*08
$GLGSA,A,3,76,,,,,,,,,,,,1.19,0.85,0.83*10
$GNRMC,193306.000,A,3850.2381,N,09447.3418,W,0.59,38.92,261124,,,D*51
$GNVTG,38.92,T,,M,0.59,N,1.09,K,D*12
$GNGGA,193307.000,3850.2377,N,09447.3418,W,2,10,0.85,317.4,M,-30.0,M,,*40
$GPGSA,A,3,08,09,26,31,03,07,04,27,16,,,,1.19,0.85,0.83*08
$GLGSA,A,3,76,,,,,,,,,,,,1.19,0.85,0.83*10
$GNRMC,193307.000,A,3850.2377,N,09447.3418,W,0.20,38.92,261124,,,D*57
$GNVTG,38.92,T,,M,0.20,N,0.37,K,D*10
$GNGGA,193308.000,3850.2372,N,09447.3417,W,2,10,0.85,317.2,M,-30.0,M,,*43
$GPGSA,A,3,08,09,26,31,03,07,04,27,16,,,,1.19,0.85,0.83*08
$GLGSA,A,3,76,,,,,,,,,,,,1.19,0.85,0.83*10
$GNRMC,193308.000,A,3850.2372,N,09447.3417,W,0.36,38.92,261124,,,D*55
$GNVTG,38.92,T,,M,0.36,N,0.67,K,D*12
$GNGGA,193309.000,3850.2372,N,09447.3417,W,2,10,0.85,317.2,M,-30.0,M,,*42
$GPGSA,A,3,08,09,26,31,03,07,04,27,16,,,,1.19,0.85,0.83*08
$GLGSA,A,3,76,,,,,,,,,,,,1.19,0.85,0.83*10
$GPGSV,3,1,10,04,87,247,26,16,61,052,26,09,56,309,38,44,39,213,*76
$GPGSV,3,2,10,27,36,126,11,07,28,285,23,26,28,050,29,08,22,161,15*75
$GPGSV,3,3,10,03,21,207,18,31,19,080,24*70
$GLGSV,2,1,07,67,75,279,,66,39,167,,78,34,253,,68,28,328,*65
$GLGSV,2,2,07,76,27,041,22,86,07,070,,85,04,021,17*51
$GNRMC,193309.000,A,3850.2372,N,09447.3417,W,0.32,38.92,261124,,,D*50
$GNVTG,38.92,T,,M,0.32,N,0.59,K,D*1B
$GNGGA,193310.000,3850.2371,N,09447.3418,W,2,10,0.85,317.1,M,-30.0,M,,*45
$GPGSA,A,3,08,09,26,31,03,07,04,27,16,,,,1.19,0.85,0.83*08
$GLGSA,A,3,76,,,,,,,,,,,,1.19,0.85,0.83*10
$GNRMC,193310.000,A,3850.2371,N,09447.3418,W,0.09,38.92,261124,,,D*5C
$GNVTG,38.92,T,,M,0.09,N,0.17,K,D*19
$GNGGA,193311.000,3850.2368,N,09447.3418,W,2,10,0.85,317.0,M,-30.0,M,,*4D
$GPGSA,A,3,08,09,26,31,03,07,04,27,16,,,,1.19,0.85,0.83*08
$GLGSA,A,3,76,,,,,,,,,,,,1.19,0.85,0.83*10
$GNRMC,193311.000,A,3850.2368,N,09447.3418,W,0.11,38.92,261124,,,D*5C
$GNVTG,38.92,T,,M,0.11,N,0.20,K,D*14
$GNGGA,193312.000,3850.2366,N,09447.3418,W,2,10,0.85,316.9,M,-30.0,M,,*48
$GPGSA,A,3,08,09,26,31,03,07,04,27,16,,,,1.19,0.85,0.83*08
$GLGSA,A,3,76,,,,,,,,,,,,1.19,0.85,0.83*10
$GNRMC,193312.000,A,3850.2366,N,09447.3418,W,0.41,38.92,261124,,,D*54
$GNVTG,38.92,T,,M,0.41,N,0.76,K,D*12
$GNGGA,193313.000,3850.2367,N,09447.3419,W,2,9,0.92,316.8,M,-30.0,M,,*76
$GPGSA,A,3,08,09,26,31,03,07,04,16,,,,,1.24,0.92,0.83*05
$GLGSA,A,3,76,,,,,,,,,,,,1.24,0.92,0.83*18
$GNRMC,193313.000,A,3850.2367,N,09447.3419,W,1.14,350.70,261124,,,D*65
$GNVTG,350.70,T,,M,1.14,N,2.12,K,D*22$GNGGA,193314.000,3850.2370,N,09447.3421,W,2,9,0.92,316.8,M,-30.0,M,,*7C
$GPGSA,A,3,08,09,26,31,03,07,04,16,,,,,1.24,0.92,0.83*05
$GLGSA,A,3,76,,,,,,,,,,,,1.24,0.92,0.83*18
$GPGSV,3,1,10,04,87,247,25,16,61,052,26,09,56,309,38,51,43,199,*7D
$GPGSV,3,2,10,27,36,126,,07,28,285,22,26,28,050,30,08,22,161,14*7D
$GPGSV,3,3,10,03,21,207,18,31,19,080,24*70
$GLGSV,2,1,07,67,75,279,,66,39,167,,78,34,253,,68,28,328,*65
$GLGSV,2,2,07,76,27,041,22,86,07,070,,85,04,021,17*51
$GNRMC,193314.000,A,3850.2370,N,09447.3421,W,1.01,349.00,261124,,,D*64
$GNVTG,349.00,T,,M,1.01,N,1.87,K,D*26
$GNGGA,193315.000,3850.2371,N,09447.3422,W,2,9,0.92,316.8,M,-30.0,M,,*7F
$GPGSA,A,3,08,09,26,31,03,07,04,16,,,,,1.24,0.92,0.83*05
$GLGSA,A,3,76,,,,,,,,,,,,1.24,0.92,0.83*18
$GNRMC,193315.000,A,3850.2371,N,09447.3422,W,0.66,352.84,261124,,,D*61
$GNVTG,352.84,T,,M,0.66,N,1.22,K,D*2F$GNGGA,193316.000,3850.2369,N,09447.3422,W,2,9,0.92,316.7,M,-30.0,M,,*7A
$GPGSA,A,3,08,09,26,31,03,07,04,16,,,,,1.24,0.92,0.83*05
$GLGSA,A,3,76,,,,,,,,,,,,1.24,0.92,0.83*18
$GNRMC,193316.000,A,3850.2369,N,09447.3422,W,1.31,350.01,261124,,,D*67
$GNVTG,350.01,T,,M,1.31,N,2.43,K,D*27$GNGGA,193317.000,3850.2373,N,09447.3424,W,2,9,0.92,316.7,M,-30.0,M,,*76
$GPGSA,A,3,08,09,26,31,03,07,04,16,,,,,1.24,0.92,0.83*05
$GLGSA,A,3,76,,,,,,,,,,,,1.24,0.92,0.83*18
$GNRMC,193317.000,A,3850.2373,N,09447.3424,W,1.46,354.22,261124,,,D*6E
$GNVTG,354.22,T,,M,1.46,N,2.70,K,D*22$GNGGA,193318.000,3850.2375,N,09447.3425,W,2,9,0.92,316.7,M,-30.0,M,,*7E
$GPGSA,A,3,08,09,26,31,03,07,04,16,,,,,1.24,0.92,0.83*05
$GLGSA,A,3,76,,,,,,,,,,,,1.24,0.92,0.83*18
$GNRMC,193318.000,A,3850.2375,N,09447.3425,W,1.04,354.33,261124,,,D*60
$GNVTG,354.33,T,,M,1.04,N,1.94,K,D*2D$GNGGA,193319.000,3850.2373,N,09447.3426,W,2,9,0.92,316.7,M,-30.0,M,,*7A
$GPGSA,A,3,08,09,26,31,03,07,04,16,,,,,1.24,0.92,0.83*05
$GLGSA,A,3,76,,,,,,,,,,,,1.24,0.92,0.83*18
$GPGSV,3,1,10,04,87,247,23,16,61,052,26,09,56,309,38,51,43,199,*7B
$GPGSV,3,2,10,27,36,126,,07,28,285,22,26,28,050,30,08,22,161,13*7A
$GPGSV,3,3,10,03,21,207,17,31,19,080,24*7F
$GLGSV,2,1,07,67,75,279,,66,39,167,,78,34,253,,68,28,328,*65
$GLGSV,2,2,07,76,27,041,22,86,07,070,,85,04,021,14*52
$GNRMC,193319.000,A,3850.2373,N,09447.3426,W,0.59,357.29,261124,,,D*65
$GNVTG,357.29,T,,M,0.59,N,1.09,K,D*28
$GNGGA,193320.000,3850.2370,N,09447.3426,W,2,9,0.92,316.7,M,-30.0,M,,*73
$GPGSA,A,3,08,09,26,31,03,07,04,16,,,,,1.24,0.92,0.83*05
$GLGSA,A,3,76,,,,,,,,,,,,1.24,0.92,0.83*18
$GNRMC,193320.000,A,3850.2370,N,09447.3426,W,0.89,153.42,261124,,,D*6A
$GNVTG,153.42,T,,M,0.89,N,1.65,K,D*24
$GNGGA,193321.000,3850.2361,N,09447.3424,W,2,8,1.13,316.5,M,-30.0,M,,*7B
$GPGSA,A,3,09,26,31,03,07,04,16,,,,,,1.40,1.13,0.83*07
$GLGSA,A,3,76,,,,,,,,,,,,1.40,1.13,0.83*12
$GNRMC,193321.000,A,3850.2361,N,09447.3424,W,0.67,153.30,261124,,,D*6C
$GNVTG,153.30,T,,M,0.67,N,1.24,K,D*24
$GNGGA,193322.000,3850.2358,N,09447.3422,W,2,8,1.13,316.5,M,-30.0,M,,*74
$GPGSA,A,3,09,26,31,03,07,04,16,,,,,,1.40,1.13,0.83*07
$GLGSA,A,3,76,,,,,,,,,,,,1.40,1.13,0.83*12
$GNRMC,193322.000,A,3850.2358,N,09447.3422,W,0.44,153.30,261124,,,D*62
$GNVTG,153.30,T,,M,0.44,N,0.81,K,D*2B
$GNGGA,193323.000,3850.2364,N,09447.3425,W,2,8,1.13,316.4,M,-30.0,M,,*7C
$GPGSA,A,3,09,26,31,03,07,04,16,,,,,,1.40,1.13,0.83*07
$GLGSA,A,3,76,,,,,,,,,,,,1.40,1.13,0.83*12
$GNRMC,193323.000,A,3850.2364,N,09447.3425,W,0.70,351.25,261124,,,D*68
$GNVTG,351.25,T,,M,0.70,N,1.30,K,D*23
$GNGGA,193324.000,3850.2369,N,09447.3427,W,2,8,1.13,316.5,M,-30.0,M,,*75
$GPGSA,A,3,09,26,31,03,07,04,16,,,,,,1.40,1.13,0.83*07
$GLGSA,A,3,76,,,,,,,,,,,,1.40,1.13,0.83*12
$GPGSV,3,1,10,04,87,247,25,16,61,052,26,09,56,309,38,27,36,126,*7A
$GPGSV,3,2,10,48,30,231,,07,28,285,24,26,28,050,29,08,22,161,*7C
$GPGSV,3,3,10,03,21,207,20,31,19,080,23*7C
$GLGSV,2,1,07,67,75,275,,66,38,167,,78,34,253,,68,28,328,*68
$GLGSV,2,2,07,76,27,041,23,86,07,070,,85,04,021,14*53
$GNRMC,193324.000,A,3850.2369,N,09447.3427,W,0.71,153.58,261124,,,D*6B
$GNVTG,153.58,T,,M,0.71,N,1.31,K,D*29$GNGGA,193325.000,3850.2366,N,09447.3426,W,2,8,1.13,316.4,M,-30.0,M,,*7B
$GPGSA,A,3,09,26,31,03,07,04,16,,,,,,1.40,1.13,0.83*07
$GLGSA,A,3,76,,,,,,,,,,,,1.40,1.13,0.83*12
$GNRMC,193325.000,A,3850.2366,N,09447.3426,W,1.39,157.78,261124,,,D*6F
$GNVTG,157.78,T,,M,1.39,N,2.57,K,D*21
$GNGGA,193326.000,3850.2365,N,09447.3427,W,2,8,1.13,316.3,M,-30.0,M,,*7D
$GPGSA,A,3,09,26,31,03,07,04,16,,,,,,1.40,1.13,0.83*07
$GLGSA,A,3,76,,,,,,,,,,,,1.40,1.13,0.83*12
$GNRMC,193326.000,A,3850.2365,N,09447.3427,W,1.34,164.69,261124,,,D*63
$GNVTG,164.69,T,,M,1.34,N,2.48,K,D*22
$GNGGA,193327.000,3850.2362,N,09447.3426,W,2,8,1.13,316.3,M,-30.0,M,,*7A
$GPGSA,A,3,09,26,31,03,07,04,16,,,,,,1.40,1.13,0.83*07
$GLGSA,A,3,76,,,,,,,,,,,,1.40,1.13,0.83*12
$GNRMC,193327.000,A,3850.2362,N,09447.3426,W,1.06,165.40,261124,,,D*6F
$GNVTG,165.40,T,,M,1.06,N,1.97,K,D*28
$GNGGA,193328.000,3850.2360,N,09447.3426,W,2,8,1.13,316.2,M,-30.0,M,,*76
$GPGSA,A,3,09,26,31,03,07,04,16,,,,,,1.40,1.13,0.83*07
$GLGSA,A,3,76,,,,,,,,,,,,1.40,1.13,0.83*12
$GNRMC,193328.000,A,3850.2360,N,09447.3426,W,0.70,294.70,261124,,,D*6C
$GNVTG,294.70,T,,M,0.70,N,1.30,K,D*2B
$GNGGA,193329.000,3850.2364,N,09447.3429,W,2,8,1.13,316.3,M,-30.0,M,,*7D
$GPGSA,A,3,09,26,31,03,07,04,16,,,,,,1.40,1.13,0.83*07
$GLGSA,A,3,76,,,,,,,,,,,,1.40,1.13,0.83*12
$GPGSV,3,1,10,04,87,247,25,16,61,052,26,09,56,309,38,27,36,126,*7A
$GPGSV,3,2,10,48,30,231,,07,28,285,24,26,28,050,29,08,22,161,*7C
$GPGSV,3,3,10,03,21,207,20,31,19,080,25*7A
$GLGSV,2,1,07,67,75,275,,66,38,167,,78,34,253,,68,29,327,*66
$GLGSV,2,2,07,76,27,041,23,86,07,070,,85,04,021,11*56
$GNRMC,193329.000,A,3850.2364,N,09447.3429,W,0.56,294.70,261124,,,D*62
$GNVTG,294.70,T,,M,0.56,N,1.03,K,D*2F
$GNGGA,193330.000,3850.2366,N,09447.3430,W,2,8,1.13,316.3,M,-30.0,M,,*7F
$GPGSA,A,3,09,26,31,03,07,04,16,,,,,,1.40,1.13,0.83*07
$GLGSA,A,3,76,,,,,,,,,,,,1.40,1.13,0.83*12
$GNRMC,193330.000,A,3850.2366,N,09447.3430,W,0.33,294.70,261124,,,D*63
$GNVTG,294.70,T,,M,0.33,N,0.61,K,D*29
$GNGGA,193331.000,3850.2366,N,09447.3429,W,2,8,1.13,316.3,M,-30.0,M,,*76
$GPGSA,A,3,09,26,31,03,07,04,16,,,,,,1.40,1.13,0.83*07
$GLGSA,A,3,76,,,,,,,,,,,,1.40,1.13,0.83*12
$GNRMC,193331.000,A,3850.2366,N,09447.3429,W,0.45,294.70,261124,,,D*6B
$GNVTG,294.70,T,,M,0.45,N,0.83,K,D*24
$GNGGA,193332.000,3850.2367,N,09447.3429,W,2,8,1.13,316.2,M,-30.0,M,,*75
$GPGSA,A,3,09,26,31,03,07,04,16,,,,,,1.40,1.13,0.83*07
$GLGSA,A,3,76,,,,,,,,,,,,1.40,1.13,0.83*12
$GNRMC,193332.000,A,3850.2367,N,09447.3429,W,1.58,352.74,261124,,,D*6B
$GNVTG,352.74,T,,M,1.58,N,2.92,K,D*24
$GNGGA,193333.000,3850.2369,N,09447.3430,W,2,8,1.13,316.4,M,-30.0,M,,*74
$GPGSA,A,3,09,26,31,03,07,04,16,,,,,,1.40,1.13,0.83*07
$GLGSA,A,3,76,,,,,,,,,,,,1.40,1.13,0.83*12
$GNRMC,193333.000,A,3850.2369,N,09447.3430,W,0.77,343.15,261124,,,D*67
$GNVTG,343.15,T,,M,0.77,N,1.43,K,D*20
$GNGGA,193334.000,3850.2369,N,09447.3428,W,2,8,1.13,316.5,M,-30.0,M,,*7B
$GPGSA,A,3,09,26,31,03,07,04,16,,,,,,1.40,1.13,0.83*07
$GLGSA,A,3,76,,,,,,,,,,,,1.40,1.13,0.83*12
$GPGSV,3,1,10,04,87,247,24,16,61,052,27,09,56,309,38,27,36,126,*7A
$GPGSV,3,2,10,07,28,285,24,26,28,050,29,08,22,161,,03,21,207,15*72
$GPGSV,3,3,10,31,19,080,26,34,,,*49
$GLGSV,2,1,07,67,75,275,,66,38,167,,78,34,253,,68,29,327,*66
$GLGSV,2,2,07,76,26,041,23,86,07,070,,85,04,021,12*54
$GNRMC,193334.000,A,3850.2369,N,09447.3428,W,0.26,343.15,261124,,,D*6D
$GNVTG,343.15,T,,M,0.26,N,0.48,K,D*2E
$GNGGA,193335.000,3850.2369,N,09447.3428,W,2,7,1.94,316.4,M,-30.0,M,,*7B
$GPGSA,A,3,09,26,31,07,04,16,,,,,,,2.13,1.94,0.88*05
$GLGSA,A,3,76,,,,,,,,,,,,2.13,1.94,0.88*13
$GNRMC,193335.000,A,3850.2369,N,09447.3428,W,0.21,343.15,261124,,,D*6B
$GNVTG,343.15,T,,M,0.21,N,0.39,K,D*2F
$GNGGA,193336.000,3850.2366,N,09447.3427,W,2,7,1.94,316.3,M,-30.0,M,,*7F
$GPGSA,A,3,09,26,31,07,04,16,,,,,,,2.13,1.94,0.88*05
$GLGSA,A,3,76,,,,,,,,,,,,2.13,1.94,0.88*13
$GNRMC,193336.000,A,3850.2366,N,09447.3427,W,1.40,356.40,261124,,,D*6A
$GNVTG,356.40,T,,M,1.40,N,2.60,K,D*23
$GNGGA,193337.000,3850.2369,N,09447.3428,W,2,7,1.94,316.5,M,-30.0,M,,*78
$GPGSA,A,3,09,26,31,07,04,16,,,,,,,2.13,1.94,0.88*05
$GLGSA,A,3,76,,,,,,,,,,,,2.13,1.94,0.88*13
$GNRMC,193337.000,A,3850.2369,N,09447.3428,W,0.97,345.19,261124,,,D*6E
$GNVTG,345.19,T,,M,0.97,N,1.81,K,D*2A
$GNGGA,193338.000,3850.2367,N,09447.3429,W,2,8,1.13,316.5,M,-30.0,M,,*78
$GPGSA,A,3,09,26,31,03,07,04,16,,,,,,1.40,1.13,0.83*07
$GLGSA,A,3,76,,,,,,,,,,,,1.40,1.13,0.83*12
$GNRMC,193338.000,A,3850.2367,N,09447.3429,W,0.62,347.44,261124,,,D*6E
$GNVTG,347.44,T,,M,0.62,N,1.15,K,D*27
$GNGGA,193339.000,3850.2362,N,09447.3427,W,2,8,1.13,316.6,M,-30.0,M,,*71
$GPGSA,A,3,09,26,31,03,07,04,16,,,,,,1.40,1.13,0.83*07
$GLGSA,A,3,76,,,,,,,,,,,,1.40,1.13,0.83*12
$GPGSV,3,1,10,04,87,247,24,16,61,052,26,09,56,309,38,27,36,126,*7B
$GPGSV,3,2,10,07,28,285,25,26,28,050,29,08,22,161,,03,21,207,16*70
