$GNGGA,110040.000,3850.2281,N,09447.3437,W,2,13,0.83,323.2,M,-30.0,M,,*4A
$GPGSA,A,3,09,12,29,25,11,06,05,19,20,,,,1.14,0.83,0.79*0C
$GLGSA,A,3,69,86,85,76,,,,,,,,,1.14,0.83,0.79*12
$GNRMC,110040.000,A,3850.2281,N,09447.3437,W,0.37,176.52,090924,,,D*6C
$GNVTG,176.52,T,,M,0.37,N,0.69,K,D*2A
$GNGGA,110041.000,3850.2281,N,09447.3437,W,2,13,0.83,323.2,M,-30.0,M,,*4B
$GPGSA,A,3,09,12,29,25,11,06,05,19,20,,,,1.14,0.83,0.79*0C
$GLGSA,A,3,69,86,85,76,,,,,,,,,1.14,0.83,0.79*12
$GNRMC,110041.000,A,3850.2281,N,09447.3437,W,0.59,223.78,090924,,,D*6E
$GNVTG,223.78,T,,M,0.59,N,1.09,K,D*2E
$GNGGA,110042.000,3850.2279,N,09447.3438,W,2,13,0.83,323.1,M,-30.0,M,,*43
$GPGSA,A,3,09,12,29,25,11,06,05,19,20,,,,1.14,0.83,0.79*0C
$GLGSA,A,3,69,86,85,76,,,,,,,,,1.14,0.83,0.79*12
$GPGSV,3,1,12,11,72,010,25,20,70,163,27,12,63,239,26,25,42,297,29*73
$GPGSV,3,2,12,05,40,190,27,44,39,213,,06,32,054,20,19,24,103,18*7C
$GPGSV,3,3,12,29,17,301,19,09,10,060,15,17,04,111,,28,01,318,*75
$GLGSV,3,1,10,85,55,357,31,75,41,234,,76,32,311,31,70,30,127,*6B
$GLGSV,3,2,10,86,29,287,28,69,28,052,23,84,23,060,,74,07,189,*6B
$GLGSV,3,3,10,71,02,165,,77,01,342,*66
$GNRMC,110042.000,A,3850.2279,N,09447.3438,W,0.81,198.29,090924,,,D*67
$GNVTG,198.29,T,,M,0.81,N,1.50,K,D*20
$GNGGA,110043.000,3850.2278,N,09447.3440,W,2,13,0.83,323.0,M,-30.0,M,,*4D
$GPGSA,A,3,09,12,29,25,11,06,05,19,20,,,,1.14,0.83,0.79*0C
$GLGSA,A,3,69,86,85,76,,,,,,,,,1.14,0.83,0.79*12
$GNRMC,110043.000,A,3850.2278,N,09447.3440,W,0.65,241.99,090924,,,D*6E
$GNVTG,241.99,T,,M,0.65,N,1.21,K,D*20
$GNGGA,110044.000,3850.2279,N,09447.3441,W,2,13,0.83,323.0,M,-30.0,M,,*4A
$GPGSA,A,3,09,12,29,25,11,06,05,19,20,,,,1.14,0.83,0.79*0C
$GLGSA,A,3,69,86,85,76,,,,,,,,,1.14,0.83,0.79*12
$GNRMC,110044.000,A,3850.2279,N,09447.3441,W,0.33,241.99,090924,,,D*6A
$GNVTG,241.99,T,,M,0.33,N,0.61,K,D*26
$GNGGA,110045.000,3850.2280,N,09447.3442,W,2,13,0.83,322.9,M,-30.0,M,,*46
$GPGSA,A,3,09,12,29,25,11,06,05,19,20,,,,1.14,0.83,0.79*0C
$GLGSA,A,3,69,86,85,76,,,,,,,,,1.14,0.83,0.79*12
$GNRMC,110045.000,A,3850.2280,N,09447.3442,W,0.51,241.99,090924,,,D*6A
$GNVTG,241.99,T,,M,0.51,N,0.95,K,D*29
$GNGGA,110046.000,3850.2281,N,09447.3443,W,2,13,0.83,322.9,M,-30.0,M,,*45
$GPGSA,A,3,09,12,29,25,11,06,05,19,20,,,,1.14,0.83,0.79*0C
$GLGSA,A,3,69,86,85,76,,,,,,,,,1.14,0.83,0.79*12
$GNRMC,110046.000,A,3850.2281,N,09447.3443,W,0.11,241.99,090924,,,D*6D
$GNVTG,241.99,T,,M,0.11,N,0.21,K,D*22
$GNGGA,110047.000,3850.2282,N,09447.3443,W,2,13,0.83,322.9,M,-30.0,M,,*47
$GPGSA,A,3,09,12,29,25,11,06,05,19,20,,,,1.14,0.83,0.79*0C
$GLGSA,A,3,69,86,85,76,,,,,,,,,1.14,0.83,0.79*12
$GPGSV,3,1,12,11,72,010,24,20,71,161,28,12,63,239,25,25,42,297,29*7D
$GPGSV,3,2,12,05,40,190,27,44,39,213,,06,32,054,20,19,23,104,19*7D
$GPGSV,3,3,12,29,17,301,19,09,10,060,17,17,04,111,,28,01,318,*77
$GLGSV,3,1,10,85,55,357,32,75,41,234,,76,32,311,31,70,30,127,*68
$GLGSV,3,2,10,86,29,287,28,69,28,052,22,84,23,060,,74,07,189,*6A
$GLGSV,3,3,10,71,02,165,,77,01,342,*66
$GNRMC,110047.000,A,3850.2282,N,09447.3443,W,0.14,241.99,090924,,,D*6A
$GNVTG,241.99,T,,M,0.14,N,0.26,K,D*20
$GNGGA,110048.000,3850.2284,N,09447.3444,W,2,13,0.83,322.9,M,-30.0,M,,*49
$GPGSA,A,3,09,12,29,25,11,06,05,19,20,,,,1.14,0.83,0.79*0C
$GLGSA,A,3,69,86,85,76,,,,,,,,,1.14,0.83,0.79*12
$GNRMC,110048.000,A,3850.2284,N,09447.3444,W,0.45,241.99,090924,,,D*60
$GNVTG,241.99,T,,M,0.45,N,0.84,K,D*2C
$GNGGA,110049.000,3850.2286,N,09447.3443,W,2,13,0.83,322.9,M,-30.0,M,,*4D
$GPGSA,A,3,09,12,29,25,11,06,05,19,20,,,,1.14,0.83,0.79*0C
$GLGSA,A,3,69,86,85,76,,,,,,,,,1.14,0.83,0.79*12
$GNRMC,110049.000,A,3850.2286,N,09447.3443,W,0.41,241.99,090924,,,D*60
$GNVTG,241.99,T,,M,0.41,N,0.76,K,D*25
$GNGGA,110050.000,3850.2287,N,09447.3443,W,2,13,0.83,322.8,M,-30.0,M,,*45
$GPGSA,A,3,09,12,29,25,11,06,05,19,20,,,,1.14,0.83,0.79*0C
$GLGSA,A,3,69,86,85,76,,,,,,,,,1.14,0.83,0.79*12
$GNRMC,110050.000,A,3850.2287,N,09447.3443,W,0.24,241.99,090924,,,D*6A
$GNVTG,241.99,T,,M,0.24,N,0.44,K,D*27
$GNGGA,110051.000,3850.2287,N,09447.3444,W,2,13,0.83,322.8,M,-30.0,M,,*43
$GPGSA,A,3,09,12,29,25,11,06,05,19,20,,,,1.14,0.83,0.79*0C
$GLGSA,A,3,69,86,85,76,,,,,,,,,1.14,0.83,0.79*12
$GNRMC,110051.000,A,3850.2287,N,09447.3444,W,0.38,241.99,090924,,,D*61
$GNVTG,241.99,T,,M,0.38,N,0.70,K,D*2D
$GNGGA,110052.000,3850.2287,N,09447.3443,W,2,14,0.77,322.9,M,-30.0,M,,*4A
$GPGSA,A,3,09,12,29,25,11,06,05,19,20,,,,1.10,0.77,0.79*03
$GLGSA,A,3,75,69,86,85,76,,,,,,,,1.10,0.77,0.79*1F
$GPGSV,3,1,12,11,72,010,24,20,71,161,28,12,63,239,24,25,42,296,29*7D
$GPGSV,3,2,12,05,40,190,27,44,39,213,,06,32,054,20,19,23,104,19*7D
$GPGSV,3,3,12,29,17,301,19,09,10,060,17,17,04,111,,28,01,318,*77
$GLGSV,3,1,10,85,55,357,31,75,41,234,16,76,32,311,31,70,30,127,*6C
$GLGSV,3,2,10,86,29,287,28,69,28,052,22,84,23,060,,74,07,189,*6A
$GLGSV,3,3,10,71,02,165,,77,01,342,*66
$GNRMC,110052.000,A,3850.2287,N,09447.3443,W,0.16,241.99,090924,,,D*69
$GNVTG,241.99,T,,M,0.16,N,0.30,K,D*25
$GNGGA,110053.000,3850.2288,N,09447.3443,W,2,14,0.77,322.9,M,-30.0,M,,*44
$GPGSA,A,3,09,12,29,25,11,06,05,19,20,,,,1.10,0.77,0.79*03
$GLGSA,A,3,75,69,86,85,76,,,,,,,,1.10,0.77,0.79*1F
$GNRMC,110053.000,A,3850.2288,N,09447.3443,W,0.26,241.99,090924,,,D*64
$GNVTG,241.99,T,,M,0.26,N,0.48,K,D*29
$GNGGA,110054.000,3850.2288,N,09447.3443,W,2,13,0.83,322.9,M,-30.0,M,,*4F
$GPGSA,A,3,09,12,29,25,11,06,05,19,20,,,,1.14,0.83,0.79*0C
$GLGSA,A,3,69,86,85,76,,,,,,,,,1.14,0.83,0.79*12
$GNRMC,110054.000,A,3850.2288,N,09447.3443,W,0.30,241.99,090924,,,D*64
$GNVTG,241.99,T,,M,0.30,N,0.56,K,D*21
$GNGGA,110055.000,3850.2288,N,09447.3443,W,2,13,0.83,322.9,M,-30.0,M,,*4E
$GPGSA,A,3,09,12,29,25,11,06,05,19,20,,,,1.14,0.83,0.79*0C
$GLGSA,A,3,69,86,85,76,,,,,,,,,1.14,0.83,0.79*12
$GNRMC,110055.000,A,3850.2288,N,09447.3443,W,0.01,241.99,090924,,,D*67
$GNVTG,241.99,T,,M,0.01,N,0.01,K,D*21
$GNGGA,110056.000,3850.2288,N,09447.3443,W,2,13,0.83,322.9,M,-30.0,M,,*4D
$GPGSA,A,3,09,12,29,25,11,06,05,19,20,,,,1.14,0.83,0.79*0C
$GLGSA,A,3,69,86,85,76,,,,,,,,,1.14,0.83,0.79*12
$GNRMC,110056.000,A,3850.2288,N,09447.3443,W,0.07,241.99,090924,,,D*62
$GNVTG,241.99,T,,M,0.07,N,0.14,K,D*23
$GNGGA,110057.000,3850.2287,N,09447.3444,W,2,14,0.77,322.9,M,-30.0,M,,*48
$GPGSA,A,3,09,12,29,25,11,06,05,19,20,,,,1.10,0.77,0.79*03
$GLGSA,A,3,75,69,86,85,76,,,,,,,,1.10,0.77,0.79*1F
$GPGSV,3,1,12,11,72,010,24,20,71,161,27,12,63,239,25,25,42,296,29*73
$GPGSV,3,2,12,05,40,190,27,44,39,213,25,06,32,054,19,19,23,104,19*70
$GPGSV,3,3,12,29,18,302,20,09,10,060,18,17,04,111,,28,01,317,*71
$GLGSV,3,1,10,85,55,357,31,75,41,234,14,76,32,311,31,70,30,127,*6E
$GLGSV,3,2,10,86,29,287,28,69,28,052,23,84,23,060,,74,07,189,*6B
$GLGSV,3,3,10,71,02,165,,77,01,342,*66
$GNRMC,110057.000,A,3850.2287,N,09447.3444,W,0.39,241.99,090924,,,D*66
$GNVTG,241.99,T,,M,0.39,N,0.72,K,D*2E
$GNGGA,110058.000,3850.2287,N,09447.3446,W,2,14,0.77,322.9,M,-30.0,M,,*45
$GPGSA,A,3,09,12,29,25,11,06,05,19,20,,,,1.10,0.77,0.79*03
$GLGSA,A,3,75,69,86,85,76,,,,,,,,1.10,0.77,0.79*1F
$GNRMC,110058.000,A,3850.2287,N,09447.3446,W,0.62,236.71,090924,,,D*63
$GNVTG,236.71,T,,M,0.62,N,1.14,K,D*27
$GNGGA,110059.000,3850.2287,N,09447.3446,W,2,13,0.83,322.9,M,-30.0,M,,*48
$GPGSA,A,3,09,12,29,25,11,06,05,19,20,,,,1.15,0.83,0.79*0D
$GLGSA,A,3,69,86,85,76,,,,,,,,,1.15,0.83,0.79*13
$GNRMC,110059.000,A,3850.2287,N,09447.3446,W,0.38,236.71,090924,,,D*6D
$GNVTG,236.71,T,,M,0.38,N,0.71,K,D*2A
$GNGGA,110100.000,3850.2286,N,09447.3447,W,2,13,0.83,322.9,M,-30.0,M,,*45
$GPGSA,A,3,09,12,29,25,11,06,05,19,20,,,,1.14,0.83,0.79*0C
$GLGSA,A,3,69,86,85,76,,,,,,,,,1.14,0.83,0.79*12
$GNRMC,110100.000,A,3850.2286,N,09447.3447,W,0.27,236.71,090924,,,D*6E
$GNVTG,236.71,T,,M,0.27,N,0.49,K,D*2F
$GNGGA,110101.000,3850.2287,N,09447.3447,W,2,13,0.83,322.9,M,-30.0,M,,*45
$GPGSA,A,3,09,12,29,25,11,06,05,19,20,,,,1.14,0.83,0.79*0C
$GLGSA,A,3,69,86,85,76,,,,,,,,,1.14,0.83,0.79*12
$GNRMC,110101.000,A,3850.2287,N,09447.3447,W,0.24,236.71,090924,,,D*6D
$GNVTG,236.71,T,,M,0.24,N,0.44,K,D*21
$GNGGA,110102.000,3850.2286,N,09447.3448,W,2,13,0.83,322.9,M,-30.0,M,,*48
$GPGSA,A,3,09,12,29,25,11,06,05,19,20,,,,1.15,0.83,0.79*0D
$GLGSA,A,3,69,86,85,76,,,,,,,,,1.15,0.83,0.79*13
$GPGSV,3,1,12,11,72,010,24,20,71,161,27,12,63,239,25,25,42,296,29*73
$GPGSV,3,2,12,05,40,190,27,44,39,213,25,06,32,054,19,19,23,104,19*70
$GPGSV,3,3,12,29,18,302,21,09,10,060,18,17,04,111,,28,01,317,*70
$GLGSV,3,1,10,85,55,357,31,75,41,234,15,76,32,311,31,70,30,127,*6F
$GLGSV,3,2,10,86,29,287,28,69,28,052,23,84,23,060,,74,07,189,*6B
$GLGSV,3,3,10,71,02,165,,77,01,342,*66
$GNRMC,110102.000,A,3850.2286,N,09447.3448,W,0.78,236.58,090924,,,D*62
$GNVTG,236.58,T,,M,0.78,N,1.44,K,D*22
$GNGGA,110103.000,3850.2287,N,09447.3449,W,2,13,0.83,322.9,M,-30.0,M,,*49
$GPGSA,A,3,09,12,29,25,11,06,05,19,20,,,,1.15,0.83,0.79*0D
$GLGSA,A,3,69,86,85,76,,,,,,,,,1.15,0.83,0.79*13
$GNRMC,110103.000,A,3850.2287,N,09447.3449,W,0.20,236.58,090924,,,D*6E
$GNVTG,236.58,T,,M,0.20,N,0.37,K,D*2A
$GNGGA,110104.000,3850.2286,N,09447.3450,W,2,13,0.83,322.9,M,-30.0,M,,*47
$GPGSA,A,3,09,12,29,25,11,06,05,19,20,,,,1.15,0.83,0.79*0D
$GLGSA,A,3,69,86,85,76,,,,,,,,,1.15,0.83,0.79*13
$GNRMC,110104.000,A,3850.2286,N,09447.3450,W,0.45,236.58,090924,,,D*63
$GNVTG,236.58,T,,M,0.45,N,0.84,K,D*21
$GNGGA,110105.000,3850.2287,N,09447.3451,W,2,13,0.83,322.9,M,-30.0,M,,*46
$GPGSA,A,3,09,12,29,25,11,06,05,19,20,,,,1.15,0.83,0.79*0D
$GLGSA,A,3,69,86,85,76,,,,,,,,,1.15,0.83,0.79*13
$GNRMC,110105.000,A,3850.2287,N,09447.3451,W,0.12,236.58,090924,,,D*60
$GNVTG,236.58,T,,M,0.12,N,0.23,K,D*2E
$GNGGA,110106.000,3850.2286,N,09447.3452,W,2,13,0.83,322.9,M,-30.0,M,,*47
$GPGSA,A,3,09,12,29,25,11,06,05,19,20,,,,1.15,0.83,0.79*0D
$GLGSA,A,3,69,86,85,76,,,,,,,,,1.15,0.83,0.79*13
$GNRMC,110106.000,A,3850.2286,N,09447.3452,W,0.46,236.58,090924,,,D*60
$GNVTG,236.58,T,,M,0.46,N,0.85,K,D*23
$GNGGA,110107.000,3850.2286,N,09447.3453,W,2,13,0.83,323.0,M,-30.0,M,,*4F
$GPGSA,A,3,09,12,29,25,11,06,05,19,20,,,,1.15,0.83,0.79*0D
$GLGSA,A,3,69,86,85,76,,,,,,,,,1.15,0.83,0.79*13
$GPGSV,3,1,12,11,72,010,24,20,71,161,27,12,63,239,25,51,43,199,*76
$GPGSV,3,2,12,25,42,296,30,05,40,190,27,06,32,054,19,19,23,104,19*72
$GPGSV,3,3,12,29,18,302,22,09,10,060,17,17,04,111,,28,01,317,*7C
$GLGSV,3,1,10,85,55,357,31,75,41,234,13,76,32,311,31,70,30,127,*69
$GLGSV,3,2,10,86,29,287,27,69,28,052,23,84,23,060,,74,07,189,*64
$GLGSV,3,3,10,71,02,165,,77,01,342,*66
$GNRMC,110107.000,A,3850.2286,N,09447.3453,W,0.46,236.58,090924,,,D*60
$GNVTG,236.58,T,,M,0.46,N,0.85,K,D*23
$GNGGA,110108.000,3850.2286,N,09447.3453,W,2,13,0.83,323.2,M,-30.0,M,,*42
$GPGSA,A,3,09,12,29,25,11,06,05,19,20,,,,1.14,0.83,0.79*0C
$GLGSA,A,3,69,86,85,76,,,,,,,,,1.14,0.83,0.79*12
$GNRMC,110108.000,A,3850.2286,N,09447.3453,W,0.11,236.58,090924,,,D*6D
$GNVTG,236.58,T,,M,0.11,N,0.20,K,D*2E
$GNGGA,110109.000,3850.2287,N,09447.3453,W,2,13,0.83,323.1,M,-30.0,M,,*41
$GPGSA,A,3,09,12,29,25,11,06,05,19,20,,,,1.15,0.83,0.79*0D
$GLGSA,A,3,69,86,85,76,,,,,,,,,1.15,0.83,0.79*13
$GNRMC,110109.000,A,3850.2287,N,09447.3453,W,0.35,236.58,090924,,,D*6B
$GNVTG,236.58,T,,M,0.35,N,0.65,K,D*29
$GNGGA,110110.000,3850.2287,N,09447.3452,W,2,13,0.83,323.1,M,-30.0,M,,*48
$GPGSA,A,3,09,12,29,25,11,06,05,19,20,,,,1.15,0.83,0.79*0D
$GLGSA,A,3,69,86,85,76,,,,,,,,,1.15,0.83,0.79*13
$GNRMC,110110.000,A,3850.2287,N,09447.3452,W,0.51,236.58,090924,,,D*60
$GNVTG,236.58,T,,M,0.51,N,0.94,K,D*25
$GNGGA,110111.000,3850.2287,N,09447.3452,W,2,13,0.83,323.2,M,-30.0,M,,*4A
$GPGSA,A,3,09,12,29,25,11,06,05,19,20,,,,1.15,0.83,0.79*0D
$GLGSA,A,3,69,86,85,76,,,,,,,,,1.15,0.83,0.79*13
$GNRMC,110111.000,A,3850.2287,N,09447.3452,W,0.39,236.58,090924,,,D*6F
$GNVTG,236.58,T,,M,0.39,N,0.72,K,D*23
$GNGGA,110112.000,3850.2287,N,09447.3450,W,2,13,0.83,323.1,M,-30.0,M,,*48
$GPGSA,A,3,09,12,29,25,11,06,05,19,20,,,,1.15,0.83,0.79*0D
$GLGSA,A,3,69,86,85,76,,,,,,,,,1.15,0.83,0.79*13
$GPGSV,3,1,12,11,72,010,24,20,71,161,27,12,63,239,25,51,43,199,*76
$GPGSV,3,2,12,25,42,296,30,05,40,190,26,06,32,054,19,19,23,104,19*73
$GPGSV,3,3,12,29,18,302,22,09,10,060,17,17,04,111,,28,01,317,*7C
$GLGSV,3,1,10,85,55,357,30,75,41,234,,76,32,311,30,70,30,127,*6B
$GLGSV,3,2,10,86,29,287,27,69,28,052,22,84,23,060,,74,07,189,*65
$GLGSV,3,3,10,71,02,165,,77,01,342,*66
$GNRMC,110112.000,A,3850.2287,N,09447.3450,W,0.47,236.58,090924,,,D*67
$GNVTG,236.58,T,,M,0.47,N,0.86,K,D*21
$GNGGA,110113.000,3850.2287,N,09447.3450,W,2,13,0.83,323.2,M,-30.0,M,,*4A
$GPGSA,A,3,09,12,29,25,11,06,05,19,20,,,,1.15,0.83,0.79*0D
$GLGSA,A,3,69,86,85,76,,,,,,,,,1.15,0.83,0.79*13
$GNRMC,110113.000,A,3850.2287,N,09447.3450,W,0.34,236.58,090924,,,D*62
$GNVTG,236.58,T,,M,0.34,N,0.63,K,D*2E
$GNGGA,110114.000,3850.2286,N,09447.3451,W,2,13,0.83,323.4,M,-30.0,M,,*4B
$GPGSA,A,3,09,12,29,25,11,06,05,19,20,,,,1.15,0.83,0.79*0D
$GLGSA,A,3,69,86,85,76,,,,,,,,,1.15,0.83,0.79*13
$GNRMC,110114.000,A,3850.2286,N,09447.3451,W,0.62,161.91,090924,,,D*62
$GNVTG,161.91,T,,M,0.62,N,1.14,K,D*28
$GNGGA,110115.000,3850.2285,N,09447.3451,W,2,13,0.83,323.4,M,-30.0,M,,*49
$GPGSA,A,3,09,12,29,25,11,06,05,19,20,,,,1.15,0.83,0.79*0D
$GLGSA,A,3,69,86,85,76,,,,,,,,,1.15,0.83,0.79*13
$GNRMC,110115.000,A,3850.2285,N,09447.3451,W,0.49,161.91,090924,,,D*69
$GNVTG,161.91,T,,M,0.49,N,0.90,K,D*2C
$GNGGA,110116.000,3850.2287,N,09447.3451,W,2,13,0.83,323.5,M,-30.0,M,,*49
$GPGSA,A,3,09,12,29,25,11,06,05,19,20,,,,1.15,0.83,0.79*0D
$GLGSA,A,3,69,86,85,76,,,,,,,,,1.15,0.83,0.79*13
$GNRMC,110116.000,A,3850.2287,N,09447.3451,W,0.94,329.86,090924,,,D*60
$GNVTG,329.86,T,,M,0.94,N,1.74,K,D*2F
$GNGGA,110117.000,3850.2288,N,09447.3451,W,2,13,0.83,323.5,M,-30.0,M,,*47
$GPGSA,A,3,09,12,29,25,11,06,05,19,20,,,,1.15,0.83,0.79*0D
$GLGSA,A,3,69,86,85,76,,,,,,,,,1.15,0.83,0.79*13
$GPGSV,3,1,12,11,72,010,24,20,71,161,27,12,63,239,26,25,42,296,30*78
$GPGSV,3,2,12,05,40,190,26,06,32,054,19,48,30,231,,19,23,104,18*72
$GPGSV,3,3,12,29,18,302,23,09,10,060,18,17,04,111,,28,01,317,*72
$GLGSV,3,1,10,85,55,357,31,75,41,234,,76,32,311,30,70,30,127,*6A
$GLGSV,3,2,10,86,29,287,27,69,28,052,21,84,23,060,,74,07,189,*66
$GLGSV,3,3,10,71,02,165,,77,01,342,*66
$GNRMC,110117.000,A,3850.2288,N,09447.3451,W,0.27,329.86,090924,,,D*66
$GNVTG,329.86,T,,M,0.27,N,0.49,K,D*28
$GNGGA,110118.000,3850.2288,N,09447.3451,W,2,13,0.83,323.5,M,-30.0,M,,*48
$GPGSA,A,3,09,12,29,25,11,06,05,19,20,,,,1.15,0.83,0.79*0D
$GLGSA,A,3,69,86,85,76,,,,,,,,,1.15,0.83,0.79*13
$GNRMC,110118.000,A,3850.2288,N,09447.3451,W,0.68,148.33,090924,,,D*69
$GNVTG,148.33,T,,M,0.68,N,1.27,K,D*21
$GNGGA,110119.000,3850.2287,N,09447.3450,W,2,13,0.83,323.6,M,-30.0,M,,*44
$GPGSA,A,3,09,12,29,25,11,06,05,19,20,,,,1.15,0.83,0.79*0D
$GLGSA,A,3,69,86,85,76,,,,,,,,,1.15,0.83,0.79*13
$GNRMC,110119.000,A,3850.2287,N,09447.3450,W,0.94,158.89,090924,,,D*65
$GNVTG,158.89,T,,M,0.94,N,1.74,K,D*24
$GNGGA,110120.000,3850.2287,N,09447.3447,W,2,13,0.83,323.6,M,-30.0,M,,*48
$GPGSA,A,3,09,12,29,25,11,06,05,19,20,,,,1.15,0.83,0.79*0D
$GLGSA,A,3,69,86,85,76,,,,,,,,,1.15,0.83,0.79*13
$GNRMC,110120.000,A,3850.2287,N,09447.3447,W,0.64,110.43,090924,,,D*6C
$GNVTG,110.43,T,,M,0.64,N,1.19,K,D*2A
$GNGGA,110121.000,3850.2285,N,09447.3448,W,2,13,0.83,323.6,M,-30.0,M,,*44
$GPGSA,A,3,09,12,29,25,11,06,05,19,20,,,,1.15,0.83,0.79*0D
$GLGSA,A,3,69,86,85,76,,,,,,,,,1.15,0.83,0.79*13
$GNRMC,110121.000,A,3850.2285,N,09447.3448,W,0.82,305.34,090924,,,D*6E
$GNVTG,305.34,T,,M,0.82,N,1.51,K,D*28
$GNGGA,110122.000,3850.2286,N,09447.3450,W,2,13,0.83,323.8,M,-30.0,M,,*43
$GPGSA,A,3,09,12,29,25,11,06,05,19,20,,,,1.15,0.83,0.79*0D
$GLGSA,A,3,69,86,85,76,,,,,,,,,1.15,0.83,0.79*13
$GPGSV,3,1,12,11,72,010,26,20,71,161,29,12,63,239,29,25,42,296,32*79
$GPGSV,3,2,12,05,40,190,28,06,32,054,22,48,30,231,,19,23,104,19*75
$GPGSV,3,3,12,29,18,302,24,09,10,060,18,17,04,111,,28,01,317,*75
$GLGSV,3,1,10,85,55,357,34,75,41,234,,76,32,311,32,70,30,127,*6D
$GLGSV,3,2,10,86,29,287,30,69,28,052,24,84,23,060,,74,07,189,*65
$GLGSV,3,3,10,71,02,165,,77,01,342,*66
$GNRMC,110122.000,A,3850.2286,N,09447.3450,W,0.60,308.93,090924,,,D*6B
$GNVTG,308.93,T,,M,0.60,N,1.11,K,D*20
$GNGGA,110123.000,3850.2287,N,09447.3450,W,2,13,0.83,324.0,M,-30.0,M,,*4C
$GPGSA,A,3,09,12,29,25,11,06,05,19,20,,,,1.15,0.83,0.79*0D
$GLGSA,A,3,69,86,85,76,,,,,,,,,1.15,0.83,0.79*13
$GNRMC,110123.000,A,3850.2287,N,09447.3450,W,0.36,308.93,090924,,,D*68
$GNVTG,308.93,T,,M,0.36,N,0.66,K,D*22
$GNGGA,110124.000,3850.2288,N,09447.3450,W,2,13,0.83,324.0,M,-30.0,M,,*44
$GPGSA,A,3,09,12,29,25,11,06,05,19,20,,,,1.15,0.83,0.79*0D
$GLGSA,A,3,69,86,85,76,,,,,,,,,1.15,0.83,0.79*13
$GNRMC,110124.000,A,3850.2288,N,09447.3450,W,0.29,308.93,090924,,,D*6E
$GNVTG,308.93,T,,M,0.29,N,0.55,K,D*2C
$GNGGA,110125.000,3850.2289,N,09447.3450,W,2,13,0.83,323.9,M,-30.0,M,,*4A
$GPGSA,A,3,09,12,29,25,11,06,05,19,20,,,,1.15,0.83,0.79*0D
$GLGSA,A,3,69,86,85,76,,,,,,,,,1.15,0.83,0.79*13
$GNRMC,110125.000,A,3850.2289,N,09447.3450,W,0.39,308.93,090924,,,D*6F
$GNVTG,308.93,T,,M,0.39,N,0.71,K,D*2B
$GNGGA,110126.000,3850.2289,N,09447.3450,W,2,13,0.83,324.1,M,-30.0,M,,*46
$GPGSA,A,3,09,12,29,25,11,06,05,19,20,,,,1.15,0.83,0.79*0D
$GLGSA,A,3,69,86,85,76,,,,,,,,,1.15,0.83,0.79*13
$GNRMC,110126.000,A,3850.2289,N,09447.3450,W,0.37,308.93,090924,,,D*62
$GNVTG,308.93,T,,M,0.37,N,0.69,K,D*2C
$GNGGA,110127.000,3850.2290,N,09447.3450,W,2,13,0.83,324.0,M,-30.0,M,,*4E
$GPGSA,A,3,09,12,29,25,11,06,05,19,20,,,,1.15,0.83,0.79*0D
$GLGSA,A,3,69,86,85,76,,,,,,,,,1.15,0.83,0.79*13
$GPGSV,3,1,12,11,72,010,25,20,71,161,28,12,63,239,26,25,42,296,31*77
$GPGSV,3,2,12,05,40,190,27,44,39,213,,06,32,054,21,19,23,104,19*7C
$GPGSV,3,3,12,29,18,302,23,09,10,060,18,17,04,111,,28,01,317,*72
$GLGSV,3,1,10,85,55,357,32,75,41,234,,76,32,311,31,70,30,127,*68
$GLGSV,3,2,10,86,29,287,28,69,28,052,22,84,23,060,,74,07,189,*6A
$GLGSV,3,3,10,71,02,165,,77,01,342,*66
$GNRMC,110127.000,A,3850.2290,N,09447.3450,W,0.58,139.61,090924,,,D*6F
$GNVTG,139.61,T,,M,0.58,N,1.08,K,D*2E
$GNGGA,110128.000,3850.2289,N,09447.3450,W,2,13,0.83,324.0,M,-30.0,M,,*49
$GPGSA,A,3,09,12,29,25,11,06,05,19,20,,,,1.15,0.83,0.79*0D
$GLGSA,A,3,69,86,85,76,,,,,,,,,1.15,0.83,0.79*13
$GNRMC,110128.000,A,3850.2289,N,09447.3450,W,0.42,139.61,090924,,,D*63
$GNVTG,139.61,T,,M,0.42,N,0.78,K,D*23
$GNGGA,110129.000,3850.2288,N,09447.3449,W,2,13,0.83,323.9,M,-30.0,M,,*4F
$GPGSA,A,3,09,12,29,25,11,06,05,19,20,,,,1.15,0.83,0.79*0D
$GLGSA,A,3,69,86,85,76,,,,,,,,,1.15,0.83,0.79*13
$GNRMC,110129.000,A,3850.2288,N,09447.3449,W,0.27,139.61,090924,,,D*68
$GNVTG,139.61,T,,M,0.27,N,0.49,K,D*22
$GNGGA,110130.000,3850.2288,N,09447.3448,W,2,13,0.83,323.9,M,-30.0,M,,*46
$GPGSA,A,3,09,12,29,25,11,06,05,19,20,,,,1.15,0.83,0.79*0D
$GLGSA,A,3,69,86,85,76,,,,,,,,,1.15,0.83,0.79*13
$GNRMC,110130.000,A,3850.2288,N,09447.3448,W,0.21,139.61,090924,,,D*67
$GNVTG,139.61,T,,M,0.21,N,0.39,K,D*23
$GNGGA,110131.000,3850.2288,N,09447.3448,W,2,13,0.83,323.9,M,-30.0,M,,*47
$GPGSA,A,3,09,12,29,25,11,06,05,19,20,,,,1.15,0.83,0.79*0D
$GLGSA,A,3,69,86,85,76,,,,,,,,,1.15,0.83,0.79*13
$GNRMC,110131.000,A,3850.2288,N,09447.3448,W,0.10,139.61,090924,,,D*64
$GNVTG,139.61,T,,M,0.10,N,0.19,K,D*23
$GNGGA,110132.000,3850.2288,N,09447.3448,W,2,13,0.83,323.9,M,-30.0,M,,*44
$GPGSA,A,3,09,12,29,25,11,06,05,19,20,,,,1.15,0.83,0.79*0D
$GLGSA,A,3,69,86,85,76,,,,,,,,,1.15,0.83,0.79*13
$GPGSV,3,1,12,11,72,010,24,20,71,161,27,12,63,239,26,25,42,296,31*79
$GPGSV,3,2,12,05,40,190,26,44,39,213,,06,32,054,20,19,23,104,20*76
$GPGSV,3,3,12,29,18,302,23,09,10,060,18,17,04,111,,28,01,317,*72
$GLGSV,3,1,10,85,55,357,31,75,41,234,,76,32,311,30,70,30,127,*6A
$GLGSV,3,2,10,86,29,287,27,69,28,052,22,84,23,060,,74,07,189,*65
$GLGSV,3,3,10,71,02,165,,77,01,342,*66
$GNRMC,110132.000,A,3850.2288,N,09447.3448,W,0.29,139.61,090924,,,D*6D
$GNVTG,139.61,T,,M,0.29,N,0.54,K,D*20
$GNGGA,110133.000,3850.2288,N,09447.3447,W,2,13,0.83,323.9,M,-30.0,M,,*4A
$GPGSA,A,3,09,12,29,25,11,06,05,19,20,,,,1.15,0.83,0.79*0D
$GLGSA,A,3,69,86,85,76,,,,,,,,,1.15,0.83,0.79*13
$GNRMC,110133.000,A,3850.2288,N,09447.3447,W,0.42,139.61,090924,,,D*6E
$GNVTG,139.61,T,,M,0.42,N,0.78,K,D*23
$GNGGA,110134.000,3850.2288,N,09447.3446,W,2,13,0.83,323.9,M,-30.0,M,,*4C
$GPGSA,A,3,09,12,29,25,11,06,05,19,20,,,,1.15,0.83,0.79*0D
$GLGSA,A,3,69,86,85,76,,,,,,,,,1.15,0.83,0.79*13
$GNRMC,110134.000,A,3850.2288,N,09447.3446,W,0.17,139.61,090924,,,D*68
$GNVTG,139.61,T,,M,0.17,N,0.32,K,D*2D
$GNGGA,110135.000,3850.2288,N,09447.3447,W,2,13,0.83,323.9,M,-30.0,M,,*4C
$GPGSA,A,3,09,12,29,25,11,06,05,19,20,,,,1.15,0.83,0.79*0D
$GLGSA,A,3,69,86,85,76,,,,,,,,,1.15,0.83,0.79*13
$GNRMC,110135.000,A,3850.2288,N,09447.3447,W,0.20,139.61,090924,,,D*6C
$GNVTG,139.61,T,,M,0.20,N,0.37,K,D*2C
$GNGGA,110136.000,3850.2288,N,09447.3447,W,2,13,0.83,323.8,M,-30.0,M,,*4E
$GPGSA,A,3,09,12,29,25,11,06,05,19,20,,,,1.15,0.83,0.79*0D
$GLGSA,A,3,69,86,85,76,,,,,,,,,1.15,0.83,0.79*13
$GNRMC,110136.000,A,3850.2288,N,09447.3447,W,0.13,139.61,090924,,,D*6F
$GNVTG,139.61,T,,M,0.13,N,0.24,K,D*2E
$GNGGA,110137.000,3850.2289,N,09447.3447,W,2,14,0.77,323.8,M,-30.0,M,,*42
$GPGSA,A,3,09,12,29,25,11,06,05,19,20,,,,1.10,0.77,0.79*03
$GLGSA,A,3,75,69,86,85,76,,,,,,,,1.10,0.77,0.79*1F
$GPGSV,3,1,12,11,72,010,24,20,71,161,27,12,63,239,26,25,42,296,31*79
$GPGSV,3,2,12,05,40,190,27,44,39,213,,06,32,054,21,19,23,104,20*76
$GPGSV,3,3,12,29,18,302,23,09,10,060,17,17,04,111,,28,01,317,*7D
$GLGSV,3,1,10,85,55,357,31,75,41,234,16,76,32,311,30,70,31,126,*6D
$GLGSV,3,2,10,86,29,287,28,69,27,051,20,84,23,060,,74,07,189,*64
$GLGSV,3,3,10,71,02,164,,77,01,342,*67
$GNRMC,110137.000,A,3850.2289,N,09447.3447,W,0.11,139.61,090924,,,D*6D
$GNVTG,139.61,T,,M,0.11,N,0.21,K,D*29
$GNGGA,110138.000,3850.2289,N,09447.3447,W,2,14,0.77,323.8,M,-30.0,M,,*4D
$GPGSA,A,3,09,12,29,25,11,06,05,19,20,,,,1.10,0.77,0.79*03
$GLGSA,A,3,75,69,86,85,76,,,,,,,,1.10,0.77,0.79*1F
$GNRMC,110138.000,A,3850.2289,N,09447.3447,W,0.09,139.61,090924,,,D*6B
$GNVTG,139.61,T,,M,0.09,N,0.18,K,D*2A
$GNGGA,110139.000,3850.2289,N,09447.3448,W,2,14,0.77,323.8,M,-30.0,M,,*43
$GPGSA,A,3,09,12,29,25,11,06,05,19,20,,,,1.10,0.77,0.79*03
$GLGSA,A,3,75,69,86,85,76,,,,,,,,1.10,0.77,0.79*1F
$GNRMC,110139.000,A,3850.2289,N,09447.3448,W,0.27,139.61,090924,,,D*69
$GNVTG,139.61,T,,M,0.27,N,0.50,K,D*2A
$GNGGA,110140.000,3850.2289,N,09447.3449,W,2,14,0.77,323.8,M,-30.0,M,,*4C
$GPGSA,A,3,09,12,29,25,11,06,05,19,20,,,,1.10,0.77,0.79*03
$GLGSA,A,3,75,69,86,85,76,,,,,,,,1.10,0.77,0.79*1F
$GNRMC,110140.000,A,3850.2289,N,09447.3449,W,0.28,139.61,090924,,,D*69
$GNVTG,139.61,T,,M,0.28,N,0.53,K,D*26
$GNGGA,110141.000,3850.2290,N,09447.3449,W,2,14,0.77,323.8,M,-30.0,M,,*45
$GPGSA,A,3,09,12,29,25,11,06,05,19,20,,,,1.10,0.77,0.79*03
$GLGSA,A,3,75,69,86,85,76,,,,,,,,1.10,0.77,0.79*1F
$GNRMC,110141.000,A,3850.2290,N,09447.3449,W,0.25,139.61,090924,,,D*6D
$GNVTG,139.61,T,,M,0.25,N,0.46,K,D*2F
$GNGGA,110142.000,3850.2290,N,09447.3449,W,2,14,0.77,323.8,M,-30.0,M,,*46
$GPGSA,A,3,09,12,29,25,11,06,05,19,20,,,,1.10,0.77,0.79*03
$GLGSA,A,3,75,69,86,85,76,,,,,,,,1.10,0.77,0.79*1F
$GPGSV,3,1,12,11,72,010,24,20,71,161,26,12,63,239,26,51,43,199,*74
$GPGSV,3,2,12,25,42,296,31,05,40,190,27,06,32,054,21,19,23,104,19*78
$GPGSV,3,3,12,29,18,302,23,09,10,060,17,17,04,111,,28,01,317,*7D
$GLGSV,3,1,10,85,55,357,31,75,40,233,15,76,32,310,30,70,31,126,*69
$GLGSV,3,2,10,86,29,287,28,69,27,051,20,84,23,060,,74,06,189,*65
$GLGSV,3,3,10,71,02,164,,77,01,342,*67
$GNRMC,110142.000,A,3850.2290,N,09447.3449,W,0.24,139.61,090924,,,D*6F
$GNVTG,139.61,T,,M,0.24,N,0.44,K,D*2C
$GNGGA,110143.000,3850.2291,N,09447.3448,W,2,14,0.77,323.8,M,-30.0,M,,*47
$GPGSA,A,3,09,12,29,25,11,06,05,19,20,,,,1.10,0.77,0.79*03
$GLGSA,A,3,75,69,86,85,76,,,,,,,,1.10,0.77,0.79*1F
$GNRMC,110143.000,A,3850.2291,N,09447.3448,W,0.16,139.61,090924,,,D*6F
$GNVTG,139.61,T,,M,0.16,N,0.29,K,D*26
$GNGGA,110144.000,3850.2291,N,09447.3446,W,2,14,0.77,323.8,M,-30.0,M,,*4E
$GPGSA,A,3,09,12,29,25,11,06,05,19,20,,,,1.10,0.77,0.79*03
$GLGSA,A,3,75,69,86,85,76,,,,,,,,1.10,0.77,0.79*1F
$GNRMC,110144.000,A,3850.2291,N,09447.3446,W,0.33,139.61,090924,,,D*61
$GNVTG,139.61,T,,M,0.33,N,0.62,K,D*2E
$GNGGA,110145.000,3850.2292,N,09447.3445,W,2,14,0.77,323.8,M,-30.0,M,,*4F
$GPGSA,A,3,09,12,29,25,11,06,05,19,20,,,,1.10,0.77,0.79*03
$GLGSA,A,3,75,69,86,85,76,,,,,,,,1.10,0.77,0.79*1F
$GNRMC,110145.000,A,3850.2292,N,09447.3445,W,0.31,139.61,090924,,,D*62
$GNVTG,139.61,T,,M,0.31,N,0.57,K,D*2A
$GNGGA,110146.000,3850.2292,N,09447.3446,W,2,14,0.77,323.8,M,-30.0,M,,*4F
$GPGSA,A,3,09,12,29,25,11,06,05,19,20,,,,1.10,0.77,0.79*03
$GLGSA,A,3,75,69,86,85,76,,,,,,,,1.10,0.77,0.79*1F
$GNRMC,110146.000,A,3850.2292,N,09447.3446,W,0.24,139.61,090924,,,D*66
$GNVTG,139.61,T,,M,0.24,N,0.44,K,D*2C
$GNGGA,110147.000,3850.2292,N,09447.3445,W,2,14,0.77,323.8,M,-30.0,M,,*4D
$GPGSA,A,3,09,12,29,25,11,06,05,19,20,,,,1.10,0.77,0.79*03
$GLGSA,A,3,75,69,86,85,76,,,,,,,,1.10,0.77,0.79*1F
$GPGSV,3,1,12,11,72,010,23,20,71,161,25,12,63,239,26,51,43,199,*70
$GPGSV,3,2,12,25,42,296,31,05,40,190,27,06,32,054,21,19,23,104,18*79
$GPGSV,3,3,12,29,18,302,23,09,10,060,18,17,04,111,,28,01,317,*72
$GLGSV,3,1,10,85,55,357,31,75,40,233,14,76,32,310,30,70,31,126,*68
$GLGSV,3,2,10,86,29,287,27,69,27,051,21,84,23,060,,74,06,189,*6B
$GLGSV,3,3,10,71,02,164,,77,02,342,*64
$GNRMC,110147.000,A,3850.2292,N,09447.3445,W,0.91,302.79,090924,,,D*69
$GNVTG,302.79,T,,M,0.91,N,1.68,K,D*2E
$GNGGA,110148.000,3850.2294,N,09447.3446,W,2,14,0.77,323.9,M,-30.0,M,,*46
$GPGSA,A,3,09,12,29,25,11,06,05,19,20,,,,1.10,0.77,0.79*03
$GLGSA,A,3,75,69,86,85,76,,,,,,,,1.10,0.77,0.79*1F
$GNRMC,110148.000,A,3850.2294,N,09447.3446,W,0.40,302.79,090924,,,D*6F
$GNVTG,302.79,T,,M,0.40,N,0.75,K,D*2F
$GNGGA,110149.000,3850.2297,N,09447.3445,W,2,14,0.77,323.9,M,-30.0,M,,*47
$GPGSA,A,3,09,12,29,25,11,06,05,19,20,,,,1.10,0.77,0.79*03
$GLGSA,A,3,75,69,86,85,76,,,,,,,,1.10,0.77,0.79*1F
$GNRMC,110149.000,A,3850.2297,N,09447.3445,W,0.45,302.79,090924,,,D*6B
$GNVTG,302.79,T,,M,0.45,N,0.83,K,D*23
$GNGGA,110150.000,3850.2299,N,09447.3443,W,2,14,0.77,323.8,M,-30.0,M,,*46
$GPGSA,A,3,09,12,29,25,11,06,05,19,20,,,,1.10,0.77,0.79*03
$GLGSA,A,3,75,69,86,85,76,,,,,,,,1.10,0.77,0.79*1F
$GNRMC,110150.000,A,3850.2299,N,09447.3443,W,0.19,302.79,090924,,,D*62
$GNVTG,302.79,T,,M,0.19,N,0.36,K,D*24
$GNGGA,110151.000,3850.2301,N,09447.3440,W,2,14,0.77,323.8,M,-30.0,M,,*44
$GPGSA,A,3,09,12,29,25,11,06,05,19,20,,,,1.10,0.77,0.79*03
$GLGSA,A,3,75,69,86,85,76,,,,,,,,1.10,0.77,0.79*1F
$GNRMC,110151.000,A,3850.2301,N,09447.3440,W,0.40,302.79,090924,,,D*6C
$GNVTG,302.79,T,,M,0.40,N,0.74,K,D*2E
$GNGGA,110152.000,3850.2303,N,09447.3440,W,2,14,0.77,323.9,M,-30.0,M,,*44
$GPGSA,A,3,09,12,29,25,11,06,05,19,20,,,,1.10,0.77,0.79*03
$GLGSA,A,3,75,69,86,85,76,,,,,,,,1.10,0.77,0.79*1F
$GPGSV,3,1,12,11,72,010,23,20,71,161,26,12,63,239,27,25,42,296,31*7E
$GPGSV,3,2,12,05,40,190,28,06,32,054,20,48,30,231,,19,23,104,18*76
$GPGSV,3,3,12,29,18,302,24,09,10,060,19,17,04,111,,28,01,317,*74
$GLGSV,3,1,10,85,55,359,31,75,40,233,16,76,32,310,30,70,31,126,*64
$GLGSV,3,2,10,86,29,288,26,69,27,051,21,84,22,061,,74,06,189,*65
$GLGSV,3,3,10,71,02,164,,77,02,342,*64
$GNRMC,110152.000,A,3850.2303,N,09447.3440,W,0.33,302.79,090924,,,D*69
$GNVTG,302.79,T,,M,0.33,N,0.62,K,D*2D
$GNGGA,110153.000,3850.2305,N,09447.3441,W,2,14,0.77,323.9,M,-30.0,M,,*42
$GPGSA,A,3,09,12,29,25,11,06,05,19,20,,,,1.10,0.77,0.79*03
$GLGSA,A,3,75,69,86,85,76,,,,,,,,1.10,0.77,0.79*1F
$GNRMC,110153.000,A,3850.2305,N,09447.3441,W,0.11,302.79,090924,,,D*6F
$GNVTG,302.79,T,,M,0.11,N,0.21,K,D*2A
$GNGGA,110154.000,3850.2306,N,09447.3441,W,2,14,0.77,323.9,M,-30.0,M,,*46
$GPGSA,A,3,09,12,29,25,11,06,05,19,20,,,,1.11,0.77,0.79*02
$GLGSA,A,3,75,69,86,85,76,,,,,,,,1.11,0.77,0.79*1E
$GNRMC,110154.000,A,3850.2306,N,09447.3441,W,0.58,187.71,090924,,,D*61
$GNVTG,187.71,T,,M,0.58,N,1.08,K,D*2A
$GNGGA,110155.000,3850.2307,N,09447.3439,W,2,14,0.77,323.9,M,-30.0,M,,*49
$GPGSA,A,3,09,12,29,25,11,06,05,19,20,,,,1.10,0.77,0.79*03
$GLGSA,A,3,75,69,86,85,76,,,,,,,,1.10,0.77,0.79*1F
$GNRMC,110155.000,A,3850.2307,N,09447.3439,W,0.32,187.71,090924,,,D*62
$GNVTG,187.71,T,,M,0.32,N,0.60,K,D*29
$GNGGA,110156.000,3850.2308,N,09447.3435,W,2,14,0.77,323.9,M,-30.0,M,,*49
$GPGSA,A,3,09,12,29,25,11,06,05,19,20,,,,1.10,0.77,0.79*03
$GLGSA,A,3,75,69,86,85,76,,,,,,,,1.10,0.77,0.79*1F
$GNRMC,110156.000,A,3850.2308,N,09447.3435,W,0.26,187.71,090924,,,D*67
$GNVTG,187.71,T,,M,0.26,N,0.49,K,D*27
$GNGGA,110157.000,3850.2308,N,09447.3435,W,2,14,0.77,323.9,M,-30.0,M,,*48
$GPGSA,A,3,09,12,29,25,11,06,05,19,20,,,,1.10,0.77,0.79*03
$GLGSA,A,3,75,69,86,85,76,,,,,,,,1.10,0.77,0.79*1F
$GPGSV,3,1,12,11,72,010,23,20,71,161,26,12,63,239,27,25,42,296,31*7E
$GPGSV,3,2,12,05,40,190,28,06,32,054,21,48,30,231,,19,23,104,18*77
$GPGSV,3,3,12,29,18,302,24,09,10,060,19,17,04,111,,28,01,317,*74
$GLGSV,3,1,10,85,55,359,32,75,40,233,16,76,32,310,30,70,31,126,*67
$GLGSV,3,2,10,86,29,288,27,69,27,051,19,84,22,061,,74,06,189,*6F
$GLGSV,3,3,10,71,02,164,,77,02,342,*64
$GNRMC,110157.000,A,3850.2308,N,09447.3435,W,0.22,187.71,090924,,,D*62
$GNVTG,187.71,T,,M,0.22,N,0.40,K,D*2A
$GNGGA,110158.000,3850.2309,N,09447.3434,W,2,13,0.79,323.9,M,-30.0,M,,*4E
$GPGSA,A,3,09,12,29,25,11,06,05,19,,,,,1.14,0.79,0.81*0C
$GLGSA,A,3,75,69,86,85,76,,,,,,,,1.14,0.79,0.81*12
$GNRMC,110158.000,A,3850.2309,N,09447.3434,W,0.38,187.71,090924,,,D*66
$GNVTG,187.71,T,,M,0.38,N,0.71,K,D*23
$GNGGA,110159.000,3850.2308,N,09447.3434,W,2,14,0.77,323.9,M,-30.0,M,,*47
$GPGSA,A,3,09,12,29,25,11,06,05,19,20,,,,1.10,0.77,0.79*03
$GLGSA,A,3,75,69,86,85,76,,,,,,,,1.10,0.77,0.79*1F
$GNRMC,110159.000,A,3850.2308,N,09447.3434,W,0.42,187.71,090924,,,D*6B
$GNVTG,187.71,T,,M,0.42,N,0.78,K,D*27
$GNGGA,110200.000,3850.2307,N,09447.3434,W,2,14,0.77,323.8,M,-30.0,M,,*46
$GPGSA,A,3,09,12,29,25,11,06,05,19,20,,,,1.10,0.77,0.79*03
$GLGSA,A,3,75,69,86,85,76,,,,,,,,1.10,0.77,0.79*1F
$GNRMC,110200.000,A,3850.2307,N,09447.3434,W,0.04,187.71,090924,,,D*69
$GNVTG,187.71,T,,M,0.04,N,0.07,K,D*2D
$GNGGA,110201.000,3850.2307,N,09447.3434,W,2,14,0.77,323.8,M,-30.0,M,,*47
$GPGSA,A,3,09,12,29,25,11,06,05,19,20,,,,1.10,0.77,0.79*03
$GLGSA,A,3,75,69,86,85,76,,,,,,,,1.10,0.77,0.79*1F
$GNRMC,110201.000,A,3850.2307,N,09447.3434,W,0.47,187.71,090924,,,D*6F
$GNVTG,187.71,T,,M,0.47,N,0.87,K,D*22
$GNGGA,110202.000,3850.2307,N,09447.3436,W,2,14,0.77,324.0,M,-30.0,M,,*49
$GPGSA,A,3,09,12,29,25,11,06,05,19,20,,,,1.10,0.77,0.79*03
$GLGSA,A,3,75,69,86,85,76,,,,,,,,1.10,0.77,0.79*1F
$GPGSV,3,1,12,11,72,010,23,20,71,161,25,12,63,239,26,25,42,296,31*7C
$GPGSV,3,2,12,05,40,190,28,06,32,054,20,19,23,104,19,29,18,302,24*7D
$GPGSV,3,3,12,09,10,060,19,17,04,111,,28,01,317,,34,,,*46
$GLGSV,3,1,10,85,55,359,32,75,40,233,15,76,32,310,30,70,31,126,*64
$GLGSV,3,2,10,86,29,288,27,69,27,051,19,84,22,061,,74,06,189,*6F
$GLGSV,3,3,10,71,02,164,,77,02,342,*64
$GNRMC,110202.000,A,3850.2307,N,09447.3436,W,0.37,187.71,090924,,,D*69
$GNVTG,187.71,T,,M,0.37,N,0.69,K,D*25
$GNGGA,110203.000,3850.2307,N,09447.3434,W,2,13,0.83,323.9,M,-30.0,M,,*48
$GPGSA,A,3,09,12,29,25,11,06,05,19,20,,,,1.15,0.83,0.79*0D
$GLGSA,A,3,69,86,85,76,,,,,,,,,1.15,0.83,0.79*13
$GNRMC,110203.000,A,3850.2307,N,09447.3434,W,0.48,187.71,090924,,,D*62
$GNVTG,187.71,T,,M,0.48,N,0.88,K,D*22
$GNGGA,110204.000,3850.2307,N,09447.3432,W,2,13,0.83,323.9,M,-30.0,M,,*49
$GPGSA,A,3,09,12,29,25,11,06,05,19,20,,,,1.15,0.83,0.79*0D
$GLGSA,A,3,69,86,85,76,,,,,,,,,1.15,0.83,0.79*13
$GNRMC,110204.000,A,3850.2307,N,09447.3432,W,0.48,187.71,090924,,,D*63
$GNVTG,187.71,T,,M,0.48,N,0.90,K,D*2B
$GNGGA,110205.000,3850.2306,N,09447.3434,W,2,13,0.83,323.9,M,-30.0,M,,*4F
$GPGSA,A,3,09,12,29,25,11,06,05,19,20,,,,1.15,0.83,0.79*0D
$GLGSA,A,3,69,86,85,76,,,,,,,,,1.15,0.83,0.79*13
$GNRMC,110205.000,A,3850.2306,N,09447.3434,W,0.24,187.71,090924,,,D*6F
$GNVTG,187.71,T,,M,0.24,N,0.45,K,D*29
$GNGGA,110206.000,3850.2307,N,09447.3431,W,2,13,0.83,323.9,M,-30.0,M,,*48
$GPGSA,A,3,09,12,29,25,11,06,05,19,20,,,,1.15,0.83,0.79*0D
$GLGSA,A,3,69,86,85,76,,,,,,,,,1.15,0.83,0.79*13
$GNRMC,110206.000,A,3850.2307,N,09447.3431,W,0.76,329.74,090924,,,D*6C
$GNVTG,329.74,T,,M,0.76,N,1.41,K,D*28
$GNGGA,110207.000,3850.2308,N,09447.3432,W,2,13,0.83,324.0,M,-30.0,M,,*4B
$GPGSA,A,3,09,12,29,25,11,06,05,19,20,,,,1.15,0.83,0.79*0D
$GLGSA,A,3,69,86,85,76,,,,,,,,,1.15,0.83,0.79*13
$GPGSV,3,1,12,11,72,010,24,20,71,161,26,12,63,239,26,25,42,296,31*78
$GPGSV,3,2,12,05,40,190,27,06,32,054,20,19,23,104,19,29,18,302,24*72
$GPGSV,3,3,12,09,10,060,18,17,04,111,,28,01,317,,35,,,*46
$GLGSV,3,1,10,85,55,359,31,75,40,233,,76,32,310,30,70,31,126,*63
$GLGSV,3,2,10,86,29,288,27,69,27,051,20,84,22,061,,74,06,189,*65
$GLGSV,3,3,10,71,02,164,,77,02,342,*64
$GNRMC,110207.000,A,3850.2308,N,09447.3432,W,0.58,28.42,090924,,,D*5A
$GNVTG,28.42,T,,M,0.58,N,1.08,K,D*1E
$GNGGA,110208.000,3850.2310,N,09447.3431,W,2,13,0.83,324.1,M,-30.0,M,,*4F
$GPGSA,A,3,09,12,29,25,11,06,05,19,20,,,,1.15,0.83,0.79*0D
$GLGSA,A,3,69,86,85,76,,,,,,,,,1.15,0.83,0.79*13
$GNRMC,110208.000,A,3850.2310,N,09447.3431,W,0.70,6.07,090924,,,D*68
$GNVTG,6.07,T,,M,0.70,N,1.30,K,D*22
$GNGGA,110209.000,3850.2310,N,09447.3432,W,2,13,0.83,324.2,M,-30.0,M,,*4E
$GPGSA,A,3,09,12,29,25,11,06,05,19,20,,,,1.15,0.83,0.79*0D
$GLGSA,A,3,69,86,85,76,,,,,,,,,1.15,0.83,0.79*13
$GNRMC,110209.000,A,3850.2310,N,09447.3432,W,0.26,6.07,090924,,,D*69
$GNVTG,6.07,T,,M,0.26,N,0.47,K,D*20
$GNGGA,110210.000,3850.2309,N,09447.3430,W,2,13,0.83,324.2,M,-30.0,M,,*4C
$GPGSA,A,3,09,12,29,25,11,06,05,19,20,,,,1.15,0.83,0.79*0D
$GLGSA,A,3,69,86,85,76,,,,,,,,,1.15,0.83,0.79*13
$GNRMC,110210.000,A,3850.2309,N,09447.3430,W,0.23,6.07,090924,,,D*6E
$GNVTG,6.07,T,,M,0.23,N,0.42,K,D*20
$GNGGA,110211.000,3850.2310,N,09447.3431,W,2,13,0.83,324.3,M,-30.0,M,,*45
$GPGSA,A,3,09,12,29,25,11,06,05,19,20,,,,1.15,0.83,0.79*0D
$GLGSA,A,3,69,86,85,76,,,,,,,,,1.15,0.83,0.79*13
$GNRMC,110211.000,A,3850.2310,N,09447.3431,W,0.42,6.07,090924,,,D*61
$GNVTG,6.07,T,,M,0.42,N,0.79,K,D*2F
$GNGGA,110212.000,3850.2310,N,09447.3432,W,2,13,0.83,324.3,M,-30.0,M,,*45
$GPGSA,A,3,09,12,29,25,11,06,05,19,20,,,,1.15,0.83,0.79*0D
$GLGSA,A,3,69,86,85,76,,,,,,,,,1.15,0.83,0.79*13
$GPGSV,3,1,12,11,72,010,24,20,71,161,26,12,63,239,26,25,42,296,30*79
$GPGSV,3,2,12,05,40,190,27,06,32,054,20,19,23,104,19,29,18,302,24*72
$GPGSV,3,3,12,09,10,060,19,17,04,111,,28,01,317,,36,,,*44
$GLGSV,3,1,10,85,55,359,31,75,40,233,,76,32,310,30,70,31,126,*63
$GLGSV,3,2,10,86,29,288,26,69,27,051,20,84,22,061,,74,06,189,*64
$GLGSV,3,3,10,71,02,164,,77,02,342,*64
$GNRMC,110212.000,A,3850.2310,N,09447.3432,W,0.40,6.07,090924,,,D*63
$GNVTG,6.07,T,,M,0.40,N,0.75,K,D*21
$GNGGA,110213.000,3850.2311,N,09447.3432,W,2,13,0.83,324.2,M,-30.0,M,,*44
$GPGSA,A,3,09,12,29,25,11,06,05,19,20,,,,1.15,0.83,0.79*0D
$GLGSA,A,3,69,86,85,76,,,,,,,,,1.15,0.83,0.79*13
$GNRMC,110213.000,A,3850.2311,N,09447.3432,W,0.33,6.07,090924,,,D*67
$GNVTG,6.07,T,,M,0.33,N,0.62,K,D*23
$GNGGA,110214.000,3850.2313,N,09447.3431,W,2,13,0.83,324.2,M,-30.0,M,,*42
$GPGSA,A,3,09,12,29,25,11,06,05,19,20,,,,1.15,0.83,0.79*0D
$GLGSA,A,3,69,86,85,76,,,,,,,,,1.15,0.83,0.79*13
$GNRMC,110214.000,A,3850.2313,N,09447.3431,W,0.39,6.07,090924,,,D*6B
$GNVTG,6.07,T,,M,0.39,N,0.73,K,D*29
$GNGGA,110215.000,3850.2313,N,09447.3431,W,2,13,0.83,324.2,M,-30.0,M,,*43
$GPGSA,A,3,09,12,29,25,11,06,05,19,20,,,,1.15,0.83,0.79*0D
$GLGSA,A,3,69,86,85,76,,,,,,,,,1.15,0.83,0.79*13
$GNRMC,110215.000,A,3850.2313,N,09447.3431,W,0.13,6.07,090924,,,D*62
$GNVTG,6.07,T,,M,0.13,N,0.24,K,D*23
$GNGGA,110216.000,3850.2313,N,09447.3431,W,2,13,0.83,324.2,M,-30.0,M,,*40
$GPGSA,A,3,09,12,29,25,11,06,05,19,20,,,,1.15,0.83,0.79*0D
$GLGSA,A,3,69,86,85,76,,,,,,,,,1.15,0.83,0.79*13
$GNRMC,110216.000,A,3850.2313,N,09447.3431,W,0.16,6.07,090924,,,D*64
$GNVTG,6.07,T,,M,0.16,N,0.30,K,D*23
$GNGGA,110217.000,3850.2312,N,09447.3431,W,2,13,0.83,324.3,M,-30.0,M,,*41
$GPGSA,A,3,09,12,29,25,11,06,05,19,20,,,,1.15,0.83,0.79*0D
$GLGSA,A,3,69,86,85,76,,,,,,,,,1.15,0.83,0.79*13
$GPGSV,3,1,12,11,72,010,23,20,71,161,26,12,63,239,26,25,42,296,29*76
$GPGSV,3,2,12,05,40,190,27,06,32,054,20,19,23,104,19,29,18,302,24*72
$GPGSV,3,3,12,09,10,060,19,17,04,111,,28,01,317,,36,,,*44
$GLGSV,3,1,10,85,55,359,32,75,40,233,,76,32,310,30,70,31,126,*60
$GLGSV,3,2,10,86,29,288,27,69,27,051,20,84,22,061,,74,06,189,*65
$GLGSV,3,3,10,71,02,164,,77,02,342,*64
$GNRMC,110217.000,A,3850.2312,N,09447.3431,W,0.35,6.07,090924,,,D*65
$GNVTG,6.07,T,,M,0.35,N,0.65,K,D*22
$GNGGA,110218.000,3850.2313,N,09447.3430,W,2,13,0.83,324.3,M,-30.0,M,,*4E
$GPGSA,A,3,09,12,29,25,11,06,05,19,20,,,,1.15,0.83,0.79*0D
$GLGSA,A,3,69,86,85,76,,,,,,,,,1.15,0.83,0.79*13
$GNRMC,110218.000,A,3850.2313,N,09447.3430,W,0.24,6.07,090924,,,D*6A
$GNVTG,6.07,T,,M,0.24,N,0.44,K,D*21
$GNGGA,110219.000,3850.2311,N,09447.3430,W,2,13,0.83,324.2,M,-30.0,M,,*4C
$GPGSA,A,3,09,12,29,25,11,06,05,19,20,,,,1.15,0.83,0.79*0D
$GLGSA,A,3,69,86,85,76,,,,,,,,,1.15,0.83,0.79*13
$GNRMC,110219.000,A,3850.2311,N,09447.3430,W,0.47,6.07,090924,,,D*6C
$GNVTG,6.07,T,,M,0.47,N,0.87,K,D*2B
$GNGGA,110220.000,3850.2313,N,09447.3430,W,2,13,0.83,324.3,M,-30.0,M,,*45
$GPGSA,A,3,09,12,29,25,11,06,05,19,20,,,,1.15,0.83,0.79*0D
$GLGSA,A,3,69,86,85,76,,,,,,,,,1.15,0.83,0.79*13
$GNRMC,110220.000,A,3850.2313,N,09447.3430,W,0.97,340.67,090924,,,D*6E
$GNVTG,340.67,T,,M,0.97,N,1.80,K,D*27
$GNGGA,110221.000,3850.2313,N,09447.3431,W,2,13,0.83,324.5,M,-30.0,M,,*43
$GPGSA,A,3,09,12,29,25,11,06,05,19,20,,,,1.15,0.83,0.79*0D
$GLGSA,A,3,69,86,85,76,,,,,,,,,1.15,0.83,0.79*13
$GNRMC,110221.000,A,3850.2313,N,09447.3431,W,0.33,340.67,090924,,,D*60
$GNVTG,340.67,T,,M,0.33,N,0.61,K,D*27
$GNGGA,110222.000,3850.2314,N,09447.3431,W,2,13,0.83,324.5,M,-30.0,M,,*47
$GPGSA,A,3,09,12,29,25,11,06,05,19,20,,,,1.15,0.83,0.79*0D
$GLGSA,A,3,69,86,85,76,,,,,,,,,1.15,0.83,0.79*13
$GPGSV,3,1,12,11,72,010,23,20,71,161,27,12,63,239,25,25,42,296,29*74
$GPGSV,3,2,12,05,40,190,25,06,32,054,20,19,23,104,19,29,18,302,24*70
$GPGSV,3,3,12,09,10,060,19,17,04,111,,28,01,317,,38,,,*4A
$GLGSV,3,1,10,85,55,359,32,75,40,233,,76,32,310,29,70,31,126,*68
$GLGSV,3,2,10,86,29,288,26,69,27,051,20,84,22,061,,74,06,189,*64
$GLGSV,3,3,10,71,02,164,,77,02,342,*64
$GNRMC,110222.000,A,3850.2314,N,09447.3431,W,0.76,164.79,090924,,,D*6E
$GNVTG,164.79,T,,M,0.76,N,1.41,K,D*2E
$GNGGA,110223.000,3850.2312,N,09447.3431,W,2,13,0.83,324.5,M,-30.0,M,,*40
$GPGSA,A,3,09,12,29,25,11,06,05,19,20,,,,1.15,0.83,0.79*0D
$GLGSA,A,3,69,86,85,76,,,,,,,,,1.15,0.83,0.79*13
$GNRMC,110223.000,A,3850.2312,N,09447.3431,W,1.58,205.73,090924,,,D*6A
$GNVTG,205.73,T,,M,1.58,N,2.92,K,D*20
$GNGGA,110224.000,3850.2310,N,09447.3432,W,2,13,0.83,324.3,M,-30.0,M,,*40
$GPGSA,A,3,09,12,29,25,11,06,05,19,20,,,,1.15,0.83,0.79*0D
$GLGSA,A,3,69,86,85,76,,,,,,,,,1.15,0.83,0.79*13
$GNRMC,110224.000,A,3850.2310,N,09447.3432,W,0.92,197.10,090924,,,D*66
$GNVTG,197.10,T,,M,0.92,N,1.70,K,D*25
$GNGGA,110225.000,3850.2310,N,09447.3432,W,2,13,0.83,324.2,M,-30.0,M,,*40
$GPGSA,A,3,09,12,29,25,11,06,05,19,20,,,,1.15,0.83,0.79*0D
$GLGSA,A,3,69,86,85,76,,,,,,,,,1.15,0.83,0.79*13
$GNRMC,110225.000,A,3850.2310,N,09447.3432,W,0.51,197.10,090924,,,D*68
$GNVTG,197.10,T,,M,0.51,N,0.94,K,D*21
$GNGGA,110226.000,3850.2309,N,09447.3434,W,2,13,0.83,324.2,M,-30.0,M,,*4D
$GPGSA,A,3,09,12,29,25,11,06,05,19,20,,,,1.15,0.83,0.79*0D
$GLGSA,A,3,69,86,85,76,,,,,,,,,1.15,0.83,0.79*13
$GNRMC,110226.000,A,3850.2309,N,09447.3434,W,0.53,197.10,090924,,,D*67
$GNVTG,197.10,T,,M,0.53,N,0.98,K,D*2F
$GNGGA,110227.000,3850.2310,N,09447.3436,W,2,13,0.83,324.2,M,-30.0,M,,*46
$GPGSA,A,3,09,12,29,25,11,06,05,19,20,,,,1.15,0.83,0.79*0D
$GLGSA,A,3,69,86,85,76,,,,,,,,,1.15,0.83,0.79*13
$GPGSV,3,1,12,11,72,010,22,20,71,161,25,12,63,239,24,25,42,296,29*76
$GPGSV,3,2,12,05,40,190,27,06,32,054,19,19,23,104,19,29,18,302,25*79
$GPGSV,3,3,12,09,10,060,19,17,04,111,,28,01,317,,41,,,*44
$GLGSV,3,1,10,85,55,359,33,75,40,233,,76,32,310,29,70,31,126,*69
$GLGSV,3,2,10,86,29,288,26,69,27,051,21,84,22,061,,74,06,189,*65
$GLGSV,3,3,10,71,02,164,,77,02,342,*64
$GNRMC,110227.000,A,3850.2310,N,09447.3436,W,0.49,197.10,090924,,,D*67
$GNVTG,197.10,T,,M,0.49,N,0.91,K,D*2D
$GNGGA,110228.000,3850.2310,N,09447.3435,W,2,13,0.83,324.2,M,-30.0,M,,*4A
$GPGSA,A,3,09,12,29,25,11,06,05,19,20,,,,1.15,0.83,0.79*0D
$GLGSA,A,3,69,86,85,76,,,,,,,,,1.15,0.83,0.79*13
$GNRMC,110228.000,A,3850.2310,N,09447.3435,W,0.47,197.10,090924,,,D*65
$GNVTG,197.10,T,,M,0.47,N,0.87,K,D*24
$GNGGA,110229.000,3850.2309,N,09447.3434,W,2,13,0.83,324.2,M,-30.0,M,,*42
$GPGSA,A,3,09,12,29,25,11,06,05,19,20,,,,1.15,0.83,0.79*0D
$GLGSA,A,3,69,86,85,76,,,,,,,,,1.15,0.83,0.79*13
$GNRMC,110229.000,A,3850.2309,N,09447.3434,W,0.59,146.09,090924,,,D*66
$GNVTG,146.09,T,,M,0.59,N,1.10,K,D*20
$GNGGA,110230.000,3850.2309,N,09447.3433,W,2,13,0.83,324.1,M,-30.0,M,,*4E
$GPGSA,A,3,09,12,29,25,11,06,05,19,20,,,,1.15,0.83,0.79*0D
$GLGSA,A,3,69,86,85,76,,,,,,,,,1.15,0.83,0.79*13
$GNRMC,110230.000,A,3850.2309,N,09447.3433,W,0.46,146.09,090924,,,D*67
$GNVTG,146.09,T,,M,0.46,N,0.85,K,D*23
$GNGGA,110231.000,3850.2308,N,09447.3429,W,2,13,0.83,323.9,M,-30.0,M,,*4A
$GPGSA,A,3,09,12,29,25,11,06,05,19,20,,,,1.15,0.83,0.79*0D
$GLGSA,A,3,69,86,85,76,,,,,,,,,1.15,0.83,0.79*13
$GNRMC,110231.000,A,3850.2308,N,09447.3429,W,1.22,10.54,090924,,,D*55
$GNVTG,10.54,T,,M,1.22,N,2.27,K,D*10
$GNGGA,110232.000,3850.2310,N,09447.3428,W,2,13,0.83,324.1,M,-30.0,M,,*4E
$GPGSA,A,3,09,12,29,25,11,06,05,19,20,,,,1.15,0.83,0.79*0D
$GLGSA,A,3,69,86,85,76,,,,,,,,,1.15,0.83,0.79*13
$GPGSV,3,1,12,11,72,010,22,20,71,161,25,12,63,239,25,25,42,296,29*77
$GPGSV,3,2,12,05,41,190,25,06,31,054,19,19,23,104,20,29,18,302,25*73
$GPGSV,3,3,12,09,10,060,17,17,04,111,,28,01,317,,43,,,*48
$GLGSV,3,1,10,85,55,359,33,75,40,233,,76,32,310,29,70,31,126,*69
$GLGSV,3,2,10,86,29,288,26,69,27,051,21,84,22,061,,74,06,189,*65
$GLGSV,3,3,10,71,02,164,,77,02,342,*64
$GNRMC,110232.000,A,3850.2310,N,09447.3428,W,1.20,4.27,090924,,,D*6D
$GNVTG,4.27,T,,M,1.20,N,2.22,K,D*26
$GNGGA,110233.000,3850.2312,N,09447.3427,W,2,13,0.83,324.2,M,-30.0,M,,*41
$GPGSA,A,3,09,12,29,25,11,06,05,19,20,,,,1.15,0.83,0.79*0D
$GLGSA,A,3,69,86,85,76,,,,,,,,,1.15,0.83,0.79*13
$GNRMC,110233.000,A,3850.2312,N,09447.3427,W,1.15,4.79,090924,,,D*6C
$GNVTG,4.79,T,,M,1.15,N,2.13,K,D*29
$GNGGA,110234.000,3850.2312,N,09447.3427,W,2,13,0.83,324.4,M,-30.0,M,,*40
$GPGSA,A,3,09,12,29,25,11,06,05,19,20,,,,1.15,0.83,0.79*0D
$GLGSA,A,3,69,86,85,76,,,,,,,,,1.15,0.83,0.79*13
$GNRMC,110234.000,A,3850.2312,N,09447.3427,W,0.64,7.41,090924,,,D*64
$GNVTG,7.41,T,,M,0.64,N,1.18,K,D*2E
$GNGGA,110235.000,3850.2312,N,09447.3427,W,2,13,0.83,324.6,M,-30.0,M,,*43
$GPGSA,A,3,09,12,29,25,11,06,05,19,20,,,,1.15,0.83,0.79*0D
$GLGSA,A,3,69,86,85,76,,,,,,,,,1.15,0.83,0.79*13
$GNRMC,110235.000,A,3850.2312,N,09447.3427,W,0.35,7.41,090924,,,D*61
$GNVTG,7.41,T,,M,0.35,N,0.65,K,D*21
$GNGGA,110236.000,3850.2314,N,09447.3427,W,2,13,0.83,324.7,M,-30.0,M,,*47
$GPGSA,A,3,09,12,29,25,11,06,05,19,20,,,,1.15,0.83,0.79*0D
$GLGSA,A,3,69,86,85,76,,,,,,,,,1.15,0.83,0.79*13
$GNRMC,110236.000,A,3850.2314,N,09447.3427,W,0.63,164.67,090924,,,D*67
$GNVTG,164.67,T,,M,0.63,N,1.17,K,D*26
$GNGGA,110237.000,3850.2312,N,09447.3426,W,2,13,0.83,324.6,M,-30.0,M,,*40
$GPGSA,A,3,09,12,29,25,11,06,05,19,20,,,,1.15,0.83,0.79*0D
$GLGSA,A,3,69,86,85,76,,,,,,,,,1.15,0.83,0.79*13
$GPGSV,3,1,12,11,71,012,22,20,71,161,25,12,62,237,26,25,42,296,29*7A
$GPGSV,3,2,12,05,41,190,25,06,31,054,18,19,23,104,21,29,18,302,25*73
$GPGSV,3,3,12,09,11,059,17,17,04,111,,28,01,317,,45,,,*45
$GLGSV,3,1,10,85,55,359,33,75,40,233,,76,32,310,29,70,31,126,*69
$GLGSV,3,2,10,86,29,288,27,69,27,051,22,84,22,061,,74,06,189,*67
$GLGSV,3,3,10,71,02,164,,77,02,342,*64
$GNRMC,110237.000,A,3850.2312,N,09447.3426,W,0.73,122.28,090924,,,D*69
$GNVTG,122.28,T,,M,0.73,N,1.36,K,D*2D
$GNGGA,110238.000,3850.2312,N,09447.3426,W,2,13,0.83,324.6,M,-30.0,M,,*4F
$GPGSA,A,3,09,12,29,25,11,06,05,19,20,,,,1.15,0.83,0.79*0D
$GLGSA,A,3,69,86,85,76,,,,,,,,,1.15,0.83,0.79*13
$GNRMC,110238.000,A,3850.2312,N,09447.3426,W,0.08,122.28,090924,,,D*6A
$GNVTG,122.28,T,,M,0.08,N,0.14,K,D*20
$GNGGA,110239.000,3850.2314,N,09447.3426,W,2,13,0.83,324.6,M,-30.0,M,,*48
$GPGSA,A,3,09,12,29,25,11,06,05,19,20,,,,1.15,0.83,0.79*0D
$GLGSA,A,3,69,86,85,76,,,,,,,,,1.15,0.83,0.79*13
$GNRMC,110239.000,A,3850.2314,N,09447.3426,W,0.44,122.28,090924,,,D*65
$GNVTG,122.28,T,,M,0.44,N,0.81,K,D*24
$GNGGA,110240.000,3850.2313,N,09447.3426,W,2,13,0.83,324.6,M,-30.0,M,,*41
$GPGSA,A,3,09,12,29,25,11,06,05,19,20,,,,1.15,0.83,0.79*0D
$GLGSA,A,3,69,86,85,76,,,,,,,,,1.15,0.83,0.79*13
$GNRMC,110240.000,A,3850.2313,N,09447.3426,W,0.17,122.28,090924,,,D*6A
$GNVTG,122.28,T,,M,0.17,N,0.32,K,D*2A
$GNGGA,110241.000,3850.2315,N,09447.3426,W,2,13,0.83,324.7,M,-30.0,M,,*47
$GPGSA,A,3,09,12,29,25,11,06,05,19,20,,,,1.15,0.83,0.79*0D
$GLGSA,A,3,69,86,85,76,,,,,,,,,1.15,0.83,0.79*13
$GNRMC,110241.000,A,3850.2315,N,09447.3426,W,0.51,122.28,090924,,,D*6F
$GNVTG,122.28,T,,M,0.51,N,0.95,K,D*25
$GNGGA,110242.000,3850.2313,N,09447.3426,W,2,13,0.83,324.6,M,-30.0,M,,*43
$GPGSA,A,3,09,12,29,25,11,06,05,19,20,,,,1.15,0.83,0.79*0D
$GLGSA,A,3,69,86,85,76,,,,,,,,,1.15,0.83,0.79*13
$GPGSV,3,1,12,11,71,012,21,20,71,161,25,12,62,237,25,25,42,296,29*7A
$GPGSV,3,2,12,05,41,190,25,06,31,054,18,19,23,104,22,29,18,302,25*70
$GPGSV,3,3,12,09,11,059,17,17,04,112,,28,01,317,,45,,,*46
$GLGSV,3,1,10,85,55,359,33,75,40,233,16,76,32,310,29,70,31,126,*6E
$GLGSV,3,2,10,86,29,288,27,69,27,051,22,84,22,061,,74,06,189,*67
$GLGSV,3,3,10,71,02,164,,77,02,342,*64
$GNRMC,110242.000,A,3850.2313,N,09447.3426,W,1.13,200.37,090924,,,D*60
$GNVTG,200.37,T,,M,1.13,N,2.09,K,D*28
$GNGGA,110243.000,3850.2311,N,09447.3428,W,2,13,0.83,324.5,M,-30.0,M,,*4D
$GPGSA,A,3,09,12,29,25,11,06,05,19,20,,,,1.15,0.83,0.79*0D
$GLGSA,A,3,69,86,85,76,,,,,,,,,1.15,0.83,0.79*13
$GNRMC,110243.000,A,3850.2311,N,09447.3428,W,0.95,206.76,090924,,,D*61
$GNVTG,206.76,T,,M,0.95,N,1.76,K,D*2F
$GNGGA,110244.000,3850.2311,N,09447.3429,W,2,13,0.83,324.3,M,-30.0,M,,*4D
$GPGSA,A,3,09,12,29,25,11,06,05,19,20,,,,1.15,0.83,0.79*0D
$GLGSA,A,3,69,86,85,76,,,,,,,,,1.15,0.83,0.79*13
$GNRMC,110244.000,A,3850.2311,N,09447.3429,W,0.55,206.76,090924,,,D*6B
$GNVTG,206.76,T,,M,0.55,N,1.02,K,D*20
$GNGGA,110245.000,3850.2312,N,09447.3429,W,2,14,0.77,324.4,M,-30.0,M,,*44
$GPGSA,A,3,09,12,29,25,11,06,05,19,20,,,,1.11,0.77,0.79*02
$GLGSA,A,3,75,69,86,85,76,,,,,,,,1.11,0.77,0.79*1E
$GNRMC,110245.000,A,3850.2312,N,09447.3429,W,0.36,206.76,090924,,,D*6C
$GNVTG,206.76,T,,M,0.36,N,0.67,K,D*27
$GNGGA,110246.000,3850.2311,N,09447.3431,W,2,14,0.77,324.3,M,-30.0,M,,*4A
$GPGSA,A,3,09,12,29,25,11,06,05,19,20,,,,1.11,0.77,0.79*02
$GLGSA,A,3,75,69,86,85,76,,,,,,,,1.11,0.77,0.79*1E
$GNRMC,110246.000,A,3850.2311,N,09447.3431,W,0.64,282.83,090924,,,D*64
$GNVTG,282.83,T,,M,0.64,N,1.18,K,D*2F
$GNGGA,110247.000,3850.2312,N,09447.3433,W,2,13,0.83,324.3,M,-30.0,M,,*46
$GPGSA,A,3,09,12,29,25,11,06,05,19,20,,,,1.15,0.83,0.79*0D
$GLGSA,A,3,69,86,85,76,,,,,,,,,1.15,0.83,0.79*13
$GPGSV,3,1,12,20,72,159,25,11,71,012,21,12,62,237,26,25,42,296,30*79
$GPGSV,3,2,12,05,41,190,25,06,31,054,18,19,23,105,22,29,18,302,24*70
$GPGSV,3,3,12,09,11,059,16,17,04,112,,28,01,317,,46,,,*44
$GLGSV,3,1,10,85,55,359,33,75,40,233,,76,32,310,30,70,31,126,*61
$GLGSV,3,2,10,86,29,288,27,69,27,051,23,84,22,061,,74,06,189,*66
$GLGSV,3,3,10,71,02,164,,77,02,342,*64
$GNRMC,110247.000,A,3850.2312,N,09447.3433,W,0.42,282.83,090924,,,D*60
$GNVTG,282.83,T,,M,0.42,N,0.78,K,D*2C
$GNGGA,110248.000,3850.2312,N,09447.3433,W,2,13,0.83,324.3,M,-30.0,M,,*49
$GPGSA,A,3,09,12,29,25,11,06,05,19,20,,,,1.15,0.83,0.79*0D
$GLGSA,A,3,69,86,85,76,,,,,,,,,1.15,0.83,0.79*13
$GNRMC,110248.000,A,3850.2312,N,09447.3433,W,0.65,145.61,090924,,,D*6E
$GNVTG,145.61,T,,M,0.65,N,1.20,K,D*21
$GNGGA,110249.000,3850.2312,N,09447.3432,W,2,13,0.83,324.2,M,-30.0,M,,*48
$GPGSA,A,3,09,12,29,25,11,06,05,19,20,,,,1.15,0.83,0.79*0D
$GLGSA,A,3,69,86,85,76,,,,,,,,,1.15,0.83,0.79*13
$GNRMC,110249.000,A,3850.2312,N,09447.3432,W,0.64,151.95,090924,,,D*61
$GNVTG,151.95,T,,M,0.64,N,1.18,K,D*25
$GNGGA,110250.000,3850.2312,N,09447.3431,W,2,13,0.83,324.1,M,-30.0,M,,*40
$GPGSA,A,3,09,12,29,25,11,06,05,19,20,,,,1.15,0.83,0.79*0D
$GLGSA,A,3,69,86,85,76,,,,,,,,,1.15,0.83,0.79*13
$GNRMC,110250.000,A,3850.2312,N,09447.3431,W,0.18,151.95,090924,,,D*61
$GNVTG,151.95,T,,M,0.18,N,0.33,K,D*26
$GNGGA,110251.000,3850.2311,N,09447.3430,W,2,13,0.83,324.1,M,-30.0,M,,*43
$GPGSA,A,3,09,12,29,25,11,06,05,19,20,,,,1.15,0.83,0.79*0D
$GLGSA,A,3,69,86,85,76,,,,,,,,,1.15,0.83,0.79*13
$GNRMC,110251.000,A,3850.2311,N,09447.3430,W,0.95,350.12,090924,,,D*6B
$GNVTG,350.12,T,,M,0.95,N,1.76,K,D*2F
$GNGGA,110252.000,3850.2312,N,09447.3430,W,2,13,0.83,324.0,M,-30.0,M,,*42
$GPGSA,A,3,09,12,29,25,11,06,05,19,20,,,,1.15,0.83,0.79*0D
$GLGSA,A,3,69,86,85,76,,,,,,,,,1.15,0.83,0.79*13
$GPGSV,3,1,12,20,72,159,25,11,71,012,21,12,62,237,26,25,43,295,30*7B
$GPGSV,3,2,12,05,41,190,26,06,31,054,18,19,23,105,21,29,18,302,24*70
$GPGSV,3,3,12,09,11,059,17,17,04,112,,28,01,316,,47,,,*45
$GLGSV,3,1,10,85,55,359,33,75,40,233,,76,32,310,29,70,31,126,*69
$GLGSV,3,2,10,86,29,288,27,69,27,051,23,84,22,061,,74,06,189,*66
$GLGSV,3,3,10,71,02,164,,77,02,342,*64
$GNRMC,110252.000,A,3850.2312,N,09447.3430,W,0.77,20.23,090924,,,D*51
$GNVTG,20.23,T,,M,0.77,N,1.43,K,D*13
$GNGGA,110253.000,3850.2313,N,09447.3430,W,2,13,0.83,324.1,M,-30.0,M,,*43
$GPGSA,A,3,09,12,29,25,11,06,05,19,20,,,,1.15,0.83,0.79*0D
$GLGSA,A,3,69,86,85,76,,,,,,,,,1.15,0.83,0.79*13
$GNRMC,110253.000,A,3850.2313,N,09447.3430,W,0.54,20.23,090924,,,D*50
$GNVTG,20.23,T,,M,0.54,N,1.00,K,D*15
$GNGGA,110254.000,3850.2314,N,09447.3430,W,2,13,0.83,324.2,M,-30.0,M,,*40
$GPGSA,A,3,09,12,29,25,11,06,05,19,20,,,,1.15,0.83,0.79*0D
$GLGSA,A,3,69,86,85,76,,,,,,,,,1.15,0.83,0.79*13
$GNRMC,110254.000,A,3850.2314,N,09447.3430,W,0.15,20.23,090924,,,D*55
$GNVTG,20.23,T,,M,0.15,N,0.28,K,D*1B
$GNGGA,110255.000,3850.2313,N,09447.3428,W,2,13,0.83,324.2,M,-30.0,M,,*4F
$GPGSA,A,3,09,12,29,25,11,06,05,19,20,,,,1.15,0.83,0.79*0D
$GLGSA,A,3,69,86,85,76,,,,,,,,,1.15,0.83,0.79*13
$GNRMC,110255.000,A,3850.2313,N,09447.3428,W,0.59,129.49,090924,,,D*66
$GNVTG,129.49,T,,M,0.59,N,1.09,K,D*25
$GNGGA,110256.000,3850.2311,N,09447.3428,W,2,13,0.83,324.1,M,-30.0,M,,*4D
$GPGSA,A,3,09,12,29,25,11,06,05,19,20,,,,1.15,0.83,0.79*0D
$GLGSA,A,3,69,86,85,76,,,,,,,,,1.15,0.83,0.79*13
$GNRMC,110256.000,A,3850.2311,N,09447.3428,W,0.65,162.54,090924,,,D*6B
$GNVTG,162.54,T,,M,0.65,N,1.21,K,D*23
$GNGGA,110257.000,3850.2309,N,09447.3428,W,2,13,0.83,324.0,M,-30.0,M,,*44
$GPGSA,A,3,09,12,29,25,11,06,05,19,20,,,,1.15,0.83,0.79*0D
$GLGSA,A,3,69,86,85,76,,,,,,,,,1.15,0.83,0.79*13
$GPGSV,3,1,12,20,72,159,25,11,71,012,22,12,62,237,27,25,43,295,30*79
$GPGSV,3,2,12,05,41,190,26,06,31,054,18,19,23,105,21,29,19,302,24*71
$GPGSV,3,3,12,09,11,059,17,17,04,112,,28,01,316,,47,,,*45
$GLGSV,3,1,10,85,55,359,33,75,40,233,,76,32,310,29,70,31,126,*69
$GLGSV,3,2,10,86,29,288,27,69,27,051,24,84,22,061,,74,06,189,*61
$GLGSV,3,3,10,71,02,164,,77,02,342,*64
$GNRMC,110257.000,A,3850.2309,N,09447.3428,W,0.68,166.48,090924,,,D*67
$GNVTG,166.48,T,,M,0.68,N,1.26,K,D*20
$GNGGA,110258.000,3850.2308,N,09447.3428,W,2,13,0.83,323.9,M,-30.0,M,,*44
$GPGSA,A,3,09,12,29,25,11,06,05,19,20,,,,1.15,0.83,0.79*0D
$GLGSA,A,3,69,86,85,76,,,,,,,,,1.15,0.83,0.79*13
$GNRMC,110258.000,A,3850.2308,N,09447.3428,W,0.55,166.48,090924,,,D*67
$GNVTG,166.48,T,,M,0.55,N,1.02,K,D*28
$GNGGA,110259.000,3850.2307,N,09447.3427,W,2,13,0.83,323.8,M,-30.0,M,,*44
$GPGSA,A,3,09,12,29,25,11,06,05,19,20,,,,1.15,0.83,0.79*0D
$GLGSA,A,3,69,86,85,76,,,,,,,,,1.15,0.83,0.79*13
$GNRMC,110259.000,A,3850.2307,N,09447.3427,W,0.57,320.49,090924,,,D*65
$GNVTG,320.49,T,,M,0.57,N,1.05,K,D*2C
$GNGGA,110300.000,3850.2308,N,09447.3429,W,2,13,0.83,324.0,M,-30.0,M,,*47
$GPGSA,A,3,09,12,29,25,11,06,05,19,20,,,,1.15,0.83,0.79*0D
$GLGSA,A,3,69,86,85,76,,,,,,,,,1.15,0.83,0.79*13
$GNRMC,110300.000,A,3850.2308,N,09447.3429,W,0.59,314.32,090924,,,D*6C
$GNVTG,314.32,T,,M,0.59,N,1.09,K,D*25
$GNGGA,110301.000,3850.2308,N,09447.3430,W,2,13,0.83,324.2,M,-30.0,M,,*4C
$GPGSA,A,3,09,12,29,25,11,06,05,19,20,,,,1.15,0.83,0.79*0D
$GLGSA,A,3,69,86,85,76,,,,,,,,,1.15,0.83,0.79*13
$GNRMC,110301.000,A,3850.2308,N,09447.3430,W,0.41,314.32,090924,,,D*6C
$GNVTG,314.32,T,,M,0.41,N,0.75,K,D*26
$GNGGA,110302.000,3850.2306,N,09447.3432,W,2,13,0.83,324.1,M,-30.0,M,,*40
$GPGSA,A,3,09,12,29,25,11,06,05,19,20,,,,1.15,0.83,0.79*0D
$GLGSA,A,3,69,86,85,76,,,,,,,,,1.15,0.83,0.79*13
$GPGSV,3,1,12,20,72,159,25,11,71,012,23,12,62,237,27,25,43,295,30*78
$GPGSV,3,2,12,05,41,190,26,06,31,054,20,19,23,105,21,29,19,302,24*7A
$GPGSV,3,3,12,09,11,059,17,17,04,112,,28,01,316,,49,,,*4B
$GLGSV,3,1,10,85,55,359,33,75,40,233,,76,32,310,29,70,31,126,*69
$GLGSV,3,2,10,86,29,288,27,69,27,051,24,84,22,061,,74,06,189,*61
$GLGSV,3,3,10,71,02,164,,77,02,342,*64
$GNRMC,110302.000,A,3850.2306,N,09447.3432,W,0.46,314.32,090924,,,D*64
$GNVTG,314.32,T,,M,0.46,N,0.85,K,D*2E
$GNGGA,110303.000,3850.2305,N,09447.3433,W,2,13,0.83,324.1,M,-30.0,M,,*43
$GPGSA,A,3,09,12,29,25,11,06,05,19,20,,,,1.15,0.83,0.79*0D
$GLGSA,A,3,69,86,85,76,,,,,,,,,1.15,0.83,0.79*13
$GNRMC,110303.000,A,3850.2305,N,09447.3433,W,0.49,314.32,090924,,,D*68
$GNVTG,314.32,T,,M,0.49,N,0.91,K,D*24
$GNGGA,110304.000,3850.2305,N,09447.3433,W,2,13,0.83,324.1,M,-30.0,M,,*44
$GPGSA,A,3,09,12,29,25,11,06,05,19,20,,,,1.15,0.83,0.79*0D
$GLGSA,A,3,69,86,85,76,,,,,,,,,1.15,0.83,0.79*13
$GNRMC,110304.000,A,3850.2305,N,09447.3433,W,0.15,314.32,090924,,,D*66
$GNVTG,314.32,T,,M,0.15,N,0.27,K,D*20
$GNGGA,110305.000,3850.2305,N,09447.3434,W,2,13,0.83,324.1,M,-30.0,M,,*42
$GPGSA,A,3,09,12,29,25,11,06,05,19,20,,,,1.15,0.83,0.79*0D
$GLGSA,A,3,69,86,85,76,,,,,,,,,1.15,0.83,0.79*13
$GNRMC,110305.000,A,3850.2305,N,09447.3434,W,0.65,298.82,090924,,,D*69
$GNVTG,298.82,T,,M,0.65,N,1.20,K,D*2F
$GNGGA,110306.000,3850.2307,N,09447.3435,W,2,13,0.83,324.2,M,-30.0,M,,*41
$GPGSA,A,3,09,12,29,25,11,06,05,19,20,,,,1.15,0.83,0.79*0D
$GLGSA,A,3,69,86,85,76,,,,,,,,,1.15,0.83,0.79*13
$GNRMC,110306.000,A,3850.2307,N,09447.3435,W,1.09,341.33,090924,,,D*6D
$GNVTG,341.33,T,,M,1.09,N,2.02,K,D*28
$GNGGA,110307.000,3850.2308,N,09447.3435,W,2,13,0.83,324.4,M,-30.0,M,,*49
$GPGSA,A,3,09,12,29,25,11,06,05,19,20,,,,1.15,0.83,0.79*0D
$GLGSA,A,3,69,86,85,76,,,,,,,,,1.15,0.83,0.79*13
$GPGSV,3,1,12,20,72,159,25,11,71,012,23,12,62,237,27,25,43,295,30*78
$GPGSV,3,2,12,05,41,190,25,44,39,213,,06,31,054,19,19,23,105,21*7D
$GPGSV,3,3,12,29,19,302,24,09,11,059,17,17,04,112,,28,01,316,*72
$GLGSV,3,1,10,85,55,359,33,75,40,233,,76,32,310,29,70,31,126,*69
$GLGSV,3,2,10,86,29,288,27,69,27,051,23,84,22,061,,74,06,189,*66
$GLGSV,3,3,10,71,02,164,,77,02,342,*64
$GNRMC,110307.000,A,3850.2308,N,09447.3435,W,0.61,347.68,090924,,,D*64
$GNVTG,347.68,T,,M,0.61,N,1.13,K,D*2C
$GNGGA,110308.000,3850.2308,N,09447.3436,W,2,13,0.83,324.6,M,-30.0,M,,*47
$GPGSA,A,3,09,12,29,25,11,06,05,19,20,,,,1.15,0.83,0.79*0D
$GLGSA,A,3,69,86,85,76,,,,,,,,,1.15,0.83,0.79*13
$GNRMC,110308.000,A,3850.2308,N,09447.3436,W,0.27,347.68,090924,,,D*6A
$GNVTG,347.68,T,,M,0.27,N,0.50,K,D*28
$GNGGA,110309.000,3850.2307,N,09447.3435,W,2,13,0.83,324.7,M,-30.0,M,,*4B
$GPGSA,A,3,09,12,29,25,11,06,05,19,20,,,,1.15,0.83,0.79*0D
$GLGSA,A,3,69,86,85,76,,,,,,,,,1.15,0.83,0.79*13
$GNRMC,110309.000,A,3850.2307,N,09447.3435,W,0.64,151.14,090924,,,D*6E
$GNVTG,151.14,T,,M,0.64,N,1.19,K,D*2D
$GNGGA,110310.000,3850.2307,N,09447.3436,W,2,13,0.83,324.8,M,-30.0,M,,*4F
$GPGSA,A,3,09,12,29,25,11,06,05,19,20,,,,1.15,0.83,0.79*0D
$GLGSA,A,3,69,86,85,76,,,,,,,,,1.15,0.83,0.79*13
$GNRMC,110310.000,A,3850.2307,N,09447.3436,W,0.82,232.84,090924,,,D*62
$GNVTG,232.84,T,,M,0.82,N,1.51,K,D*26
$GNGGA,110311.000,3850.2307,N,09447.3435,W,2,13,0.83,324.9,M,-30.0,M,,*4C
$GPGSA,A,3,09,12,29,25,11,06,05,19,20,,,,1.15,0.83,0.79*0D
$GLGSA,A,3,69,86,85,76,,,,,,,,,1.15,0.83,0.79*13
$GNRMC,110311.000,A,3850.2307,N,09447.3435,W,0.23,232.84,090924,,,D*6B
$GNVTG,232.84,T,,M,0.23,N,0.42,K,D*2E
$GNGGA,110312.000,3850.2308,N,09447.3435,W,2,13,0.83,325.0,M,-30.0,M,,*48
$GPGSA,A,3,09,12,29,25,11,06,05,19,20,,,,1.15,0.83,0.79*0D
$GLGSA,A,3,69,86,85,76,,,,,,,,,1.15,0.83,0.79*13
$GPGSV,3,1,12,20,72,159,25,11,71,012,23,12,62,237,28,25,43,295,30*77
$GPGSV,3,2,12,05,41,190,25,44,39,213,,06,31,054,20,19,23,105,21*77
$GPGSV,3,3,12,29,19,302,24,09,11,059,17,17,04,112,,28,01,316,*72
$GLGSV,3,1,10,85,55,359,33,75,40,233,,76,32,310,29,70,31,126,*69
$GLGSV,3,2,10,86,29,288,27,69,27,051,23,84,22,061,,74,06,189,*66
$GLGSV,3,3,10,71,02,164,,77,02,342,*64
$GNRMC,110312.000,A,3850.2308,N,09447.3435,W,0.03,232.84,090924,,,D*65
$GNVTG,232.84,T,,M,0.03,N,0.06,K,D*2C
$GNGGA,110313.000,3850.2309,N,09447.3433,W,2,13,0.83,325.0,M,-30.0,M,,*4E
$GPGSA,A,3,09,12,29,25,11,06,05,19,20,,,,1.15,0.83,0.79*0D
$GLGSA,A,3,69,86,85,76,,,,,,,,,1.15,0.83,0.79*13
$GNRMC,110313.000,A,3850.2309,N,09447.3433,W,0.21,232.84,090924,,,D*63
$GNVTG,232.84,T,,M,0.21,N,0.39,K,D*20
$GNGGA,110314.000,3850.2309,N,09447.3432,W,2,13,0.83,325.0,M,-30.0,M,,*48
$GPGSA,A,3,09,12,29,25,11,06,05,19,20,,,,1.15,0.83,0.79*0D
$GLGSA,A,3,69,86,85,76,,,,,,,,,1.15,0.83,0.79*13
$GNRMC,110314.000,A,3850.2309,N,09447.3432,W,0.16,232.84,090924,,,D*61
$GNVTG,232.84,T,,M,0.16,N,0.29,K,D*25
$GNGGA,110315.000,3850.2310,N,09447.3430,W,2,13,0.83,325.0,M,-30.0,M,,*43
$GPGSA,A,3,09,12,29,25,11,06,05,19,20,,,,1.15,0.83,0.79*0D
$GLGSA,A,3,69,86,85,76,,,,,,,,,1.15,0.83,0.79*13
$GNRMC,110315.000,A,3850.2310,N,09447.3430,W,0.29,232.84,090924,,,D*66
$GNVTG,232.84,T,,M,0.29,N,0.53,K,D*24
$GNGGA,110316.000,3850.2309,N,09447.3429,W,2,13,0.83,325.0,M,-30.0,M,,*40
$GPGSA,A,3,09,12,29,25,11,06,05,19,20,,,,1.15,0.83,0.79*0D
$GLGSA,A,3,69,86,85,76,,,,,,,,,1.15,0.83,0.79*13
$GNRMC,110316.000,A,3850.2309,N,09447.3429,W,0.14,232.84,090924,,,D*6B
$GNVTG,232.84,T,,M,0.14,N,0.27,K,D*29
$GNGGA,110317.000,3850.2309,N,09447.3429,W,2,13,0.83,325.0,M,-30.0,M,,*41
$GPGSA,A,3,09,12,29,25,11,06,05,19,20,,,,1.15,0.83,0.79*0D
$GLGSA,A,3,69,86,85,76,,,,,,,,,1.15,0.83,0.79*13
$GPGSV,3,1,12,20,72,159,25,11,71,012,23,12,62,237,26,25,43,295,30*79
$GPGSV,3,2,12,05,41,190,26,44,39,213,,06,31,054,21,19,23,105,22*76
$GPGSV,3,3,12,29,19,302,24,09,11,059,17,17,04,112,,28,01,316,*72
$GLGSV,3,1,10,85,55,359,32,75,40,233,,76,32,310,29,70,31,126,*68
$GLGSV,3,2,10,86,29,288,27,69,27,051,23,84,22,061,,74,06,189,*66
$GLGSV,3,3,10,71,02,164,,77,02,342,*64
$GNRMC,110317.000,A,3850.2309,N,09447.3429,W,0.24,232.84,090924,,,D*69
$GNVTG,232.84,T,,M,0.24,N,0.45,K,D*2E
$GNGGA,110318.000,3850.2310,N,09447.3428,W,2,13,0.83,325.0,M,-30.0,M,,*47
$GPGSA,A,3,09,12,29,25,11,06,05,19,20,,,,1.15,0.83,0.79*0D
$GLGSA,A,3,69,86,85,76,,,,,,,,,1.15,0.83,0.79*13
$GNRMC,110318.000,A,3850.2310,N,09447.3428,W,0.31,232.84,090924,,,D*6B
$GNVTG,232.84,T,,M,0.31,N,0.57,K,D*29
$GNGGA,110319.000,3850.2309,N,09447.3427,W,2,13,0.83,324.9,M,-30.0,M,,*49
$GPGSA,A,3,09,12,29,25,11,06,05,19,20,,,,1.15,0.83,0.79*0D
$GLGSA,A,3,69,86,85,76,,,,,,,,,1.15,0.83,0.79*13
$GNRMC,110319.000,A,3850.2309,N,09447.3427,W,0.59,196.11,090924,,,D*62
$GNVTG,196.11,T,,M,0.59,N,1.09,K,D*2C
$GNGGA,110320.000,3850.2309,N,09447.3429,W,2,13,0.83,324.9,M,-30.0,M,,*4D
$GPGSA,A,3,09,12,29,25,11,06,05,19,20,,,,1.15,0.83,0.79*0D
$GLGSA,A,3,69,86,85,76,,,,,,,,,1.15,0.83,0.79*13
$GNRMC,110320.000,A,3850.2309,N,09447.3429,W,0.44,196.11,090924,,,D*6A
$GNVTG,196.11,T,,M,0.44,N,0.81,K,D*21
$GNGGA,110321.000,3850.2308,N,09447.3428,W,2,13,0.83,324.9,M,-30.0,M,,*4C
$GPGSA,A,3,09,12,29,25,11,06,05,19,20,,,,1.15,0.83,0.79*0D
$GLGSA,A,3,69,86,85,76,,,,,,,,,1.15,0.83,0.79*13
$GNRMC,110321.000,A,3850.2308,N,09447.3428,W,0.32,196.11,090924,,,D*6A
$GNVTG,196.11,T,,M,0.32,N,0.59,K,D*25
$GNGGA,110322.000,3850.2308,N,09447.3427,W,2,13,0.83,324.9,M,-30.0,M,,*40
$GPGSA,A,3,09,12,29,25,11,06,05,19,20,,,,1.15,0.83,0.79*0D
$GLGSA,A,3,69,86,85,76,,,,,,,,,1.15,0.83,0.79*13
$GPGSV,3,1,12,20,72,159,24,11,71,012,23,12,62,237,28,25,43,295,30*76
$GPGSV,3,2,12,51,43,199,,05,41,190,25,06,31,054,21,19,23,105,22*7D
$GPGSV,3,3,12,29,19,302,23,09,11,059,17,17,04,112,,28,01,316,*75
$GLGSV,3,1,10,85,55,359,32,75,40,233,,76,32,310,29,70,31,126,*68
$GLGSV,3,2,10,86,29,288,27,69,27,051,23,84,22,061,,74,06,189,*66
$GLGSV,3,3,10,71,02,164,,77,02,342,*64
$GNRMC,110322.000,A,3850.2308,N,09447.3427,W,0.33,196.11,090924,,,D*67
$GNVTG,196.11,T,,M,0.33,N,0.61,K,D*2F
$GNGGA,110323.000,3850.2307,N,09447.3428,W,2,13,0.83,324.9,M,-30.0,M,,*41
$GPGSA,A,3,09,12,29,25,11,06,05,19,20,,,,1.15,0.83,0.79*0D
$GLGSA,A,3,69,86,85,76,,,,,,,,,1.15,0.83,0.79*13
$GNRMC,110323.000,A,3850.2307,N,09447.3428,W,0.25,196.11,090924,,,D*61
$GNVTG,196.11,T,,M,0.25,N,0.47,K,D*2C
$GNGGA,110324.000,3850.2307,N,09447.3428,W,2,13,0.83,324.9,M,-30.0,M,,*46
