$GNGGA,000136.100,,,,,0,0,,,M,,M,,*53
$GPGSA,A,1,,,,,,,,,,,,,,,*1E
$GLGSA,A,1,,,,,,,,,,,,,,,*02
$GNRMC,000136.100,V,,,,,0.00,0.00,060180,,,N*59
$GNVTG,0.00,T,,M,0.00,N,0.00,K,N*2C
$GNGGA,000137.100,,,,,0,0,,,M,,M,,*52
$GPGSA,A,1,,,,,,,,,,,,,,,*1E
$GLGSA,A,1,,,,,,,,,,,,,,,*02
$GPGSV,1,1,00*79
$GLGSV,1,1,00*65
$GNRMC,000137.100,V,,,,,0.00,0.00,060180,,,N*58
$GNVTG,0.00,T,,M,0.00,N,0.00,K,N*2C
$GNGGA,000138.100,,,,,0,0,,,M,,M,,*5D
$GPGSA,A,1,,,,,,,,,,,,,,,*1E
$GLGSA,A,1,,,,,,,,,,,,,,,*02
$GNRMC,000138.100,V,,,,,0.00,0.00,060180,,,N*57
$GNVTG,0.00,T,,M,0.00,N,0.00,K,N*2C
$GNGGA,000139.100,,,,,0,0,,,M,,M,,*5C
$GPGSA,A,1,,,,,,,,,,,,,,,*1E
$GLGSA,A,1,,,,,,,,,,,,,,,*02
$GNRMC,000139.100,V,,,,,0.00,0.00,060180,,,N*56
$GNVTG,0.00,T,,M,0.00,N,0.00,K,N*2C
$GNGGA,000140.100,,,,,0,0,,,M,,M,,*52
$GPGSA,A,1,,,,,,,,,,,,,,,*1E
$GLGSA,A,1,,,,,,,,,,,,,,,*02
$GNRMC,000140.100,V,,,,,0.00,0.00,060180,,,N*58
$GNVTG,0.00,T,,M,0.00,N,0.00,K,N*2C
$GNGGA,000141.100,,,,,0,0,,,M,,M,,*53
$GPGSA,A,1,,,,,,,,,,,,,,,*1E
$GLGSA,A,1,,,,,,,,,,,,,,,*02
$GNRMC,000141.100,V,,,,,0.00,0.00,060180,,,N*59
$GNVTG,0.00,T,,M,0.00,N,0.00,K,N*2C
$GNGGA,000142.100,,,,,0,0,,,M,,M,,*50
$GPGSA,A,1,,,,,,,,,,,,,,,*1E
$GLGSA,A,1,,,,,,,,,,,,,,,*02
$GPGSV,1,1,00*79
$GLGSV,1,1,00*65
$GNRMC,000142.100,V,,,,,0.00,0.00,060180,,,N*5A
$GNVTG,0.00,T,,M,0.00,N,0.00,K,N*2C
$GNGGA,000143.100,,,,,0,0,,,M,,M,,*51
$GPGSA,A,1,,,,,,,,,,,,,,,*1E
$GLGSA,A,1,,,,,,,,,,,,,,,*02
$GNRMC,000143.100,V,,,,,0.00,0.00,060180,,,N*5B
$GNVTG,0.00,T,,M,0.00,N,0.00,K,N*2C
$GNGGA,000144.100,,,,,0,0,,,M,,M,,*56
$GPGSA,A,1,,,,,,,,,,,,,,,*1E
$GLGSA,A,1,,,,,,,,,,,,,,,*02
$GNRMC,000144.100,V,,,,,0.00,0.00,060180,,,N*5C
$GNVTG,0.00,T,,M,0.00,N,0.00,K,N*2C
$GNGGA,000145.100,,,,,0,0,,,M,,M,,*57
$GPGSA,A,1,,,,,,,,,,,,,,,*1E
$GLGSA,A,1,,,,,,,,,,,,,,,*02
$GNRMC,000145.100,V,,,,,0.00,0.00,060180,,,N*5D
$GNVTG,0.00,T,,M,0.00,N,0.00,K,N*2C
$GNGGA,000146.100,,,,,0,0,,,M,,M,,*54
$GPGSA,A,1,,,,,,,,,,,,,,,*1E
$GLGSA,A,1,,,,,,,,,,,,,,,*02
$GNRMC,000146.100,V,,,,,0.00,0.00,060180,,,N*5E
$GNVTG,0.00,T,,M,0.00,N,0.00,K,N*2C
$GNGGA,000147.100,,,,,0,0,,,M,,M,,*55
$GPGSA,A,1,,,,,,,,,,,,,,,*1E
$GLGSA,A,1,,,,,,,,,,,,,,,*02
$GPGSV,1,1,00*79
$GLGSV,1,1,00*65
$GNRMC,000147.100,V,,,,,0.00,0.00,060180,,,N*5F
$GNVTG,0.00,T,,M,0.00,N,0.00,K,N*2C
$GNGGA,000148.100,,,,,0,0,,,M,,M,,*5A
$GPGSA,A,1,,,,,,,,,,,,,,,*1E
$GLGSA,A,1,,,,,,,,,,,,,,,*02
$GNRMC,000148.100,V,,,,,0.00,0.00,060180,,,N*50
$GNVTG,0.00,T,,M,0.00,N,0.00,K,N*2C
$GNGGA,000149.100,,,,,0,0,,,M,,M,,*5B
$GPGSA,A,1,,,,,,,,,,,,,,,*1E
$GLGSA,A,1,,,,,,,,,,,,,,,*02
$GNRMC,000149.100,V,,,,,0.00,0.00,060180,,,N*51
$GNVTG,0.00,T,,M,0.00,N,0.00,K,N*2C
$GNGGA,000150.100,,,,,0,0,,,M,,M,,*53
$GPGSA,A,1,,,,,,,,,,,,,,,*1E
$GLGSA,A,1,,,,,,,,,,,,,,,*02
$GNRMC,000150.100,V,,,,,0.00,0.00,060180,,,N*59
$GNVTG,0.00,T,,M,0.00,N,0.00,K,N*2C
$GNGGA,000151.100,,,,,0,0,,,M,,M,,*52
$GPGSA,A,1,,,,,,,,,,,,,,,*1E
$GLGSA,A,1,,,,,,,,,,,,,,,*02
$GNRMC,000151.100,V,,,,,0.00,0.00,060180,,,N*58
$GNVTG,0.00,T,,M,0.00,N,0.00,K,N*2C
$GNGGA,000152.100,,,,,0,0,,,M,,M,,*51
$GPGSA,A,1,,,,,,,,,,,,,,,*1E
$GLGSA,A,1,,,,,,,,,,,,,,,*02
$GPGSV,1,1,00*79
$GLGSV,1,1,00*65
$GNRMC,000152.100,V,,,,,0.00,0.00,060180,,,N*5B
$GNVTG,0.00,T,,M,0.00,N,0.00,K,N*2C
$GNGGA,000153.100,,,,,0,0,,,M,,M,,*50
$GPGSA,A,1,,,,,,,,,,,,,,,*1E
$GLGSA,A,1,,,,,,,,,,,,,,,*02
$GNRMC,000153.100,V,,,,,0.00,0.00,060180,,,N*5A
$GNVTG,0.00,T,,M,0.00,N,0.00,K,N*2C
$GNGGA,000154.100,,,,,0,0,,,M,,M,,*57
$GPGSA,A,1,,,,,,,,,,,,,,,*1E
$GLGSA,A,1,,,,,,,,,,,,,,,*02
$GNRMC,000154.100,V,,,,,0.00,0.00,060180,,,N*5D
$GNVTG,0.00,T,,M,0.00,N,0.00,K,N*2C
$GNGGA,000155.100,,,,,0,0,,,M,,M,,*56
$GPGSA,A,1,,,,,,,,,,,,,,,*1E
$GLGSA,A,1,,,,,,,,,,,,,,,*02
$GNRMC,000155.100,V,,,,,0.00,0.00,060180,,,N*5C
$GNVTG,0.00,T,,M,0.00,N,0.00,K,N*2C
$GNGGA,000156.100,,,,,0,0,,,M,,M,,*55
$GPGSA,A,1,,,,,,,,,,,,,,,*1E
$GLGSA,A,1,,,,,,,,,,,,,,,*02
$GNRMC,000156.100,V,,,,,0.00,0.00,060180,,,N*5F
$GNVTG,0.00,T,,M,0.00,N,0.00,K,N*2C
$GNGGA,000157.100,,,,,0,0,,,M,,M,,*54
$GPGSA,A,1,,,,,,,,,,,,,,,*1E
$GLGSA,A,1,,,,,,,,,,,,,,,*02
$GPGSV,1,1,00*79
$GLGSV,1,1,01,73,,,*60
$GNRMC,000157.100,V,,,,,0.00,0.00,060180,,,N*5E
$GNVTG,0.00,T,,M,0.00,N,0.00,K,N*2C
$GNGGA,000158.100,,,,,0,0,,,M,,M,,*5B
$GPGSA,A,1,,,,,,,,,,,,,,,*1E
$GLGSA,A,1,,,,,,,,,,,,,,,*02
$GNRMC,000158.100,V,,,,,0.00,0.00,060180,,,N*51
$GNVTG,0.00,T,,M,0.00,N,0.00,K,N*2C
$GNGGA,000159.100,,,,,0,0,,,M,,M,,*5A
$GPGSA,A,1,,,,,,,,,,,,,,,*1E
$GLGSA,A,1,,,,,,,,,,,,,,,*02
$GNRMC,000159.100,V,,,,,0.00,0.00,060180,,,N*50
$GNVTG,0.00,T,,M,0.00,N,0.00,K,N*2C
$GNGGA,000200.100,,,,,0,0,,,M,,M,,*55
$GPGSA,A,1,,,,,,,,,,,,,,,*1E
$GLGSA,A,1,,,,,,,,,,,,,,,*02
$GNRMC,000200.100,V,,,,,0.00,0.00,060180,,,N*5F
$GNVTG,0.00,T,,M,0.00,N,0.00,K,N*2C
$GNGGA,000201.100,,,,,0,0,,,M,,M,,*54
$GPGSA,A,1,,,,,,,,,,,,,,,*1E
$GLGSA,A,1,,,,,,,,,,,,,,,*02
$GNRMC,000201.100,V,,,,,0.00,0.00,060180,,,N*5E
$GNVTG,0.00,T,,M,0.00,N,0.00,K,N*2C
$GNGGA,000202.100,,,,,0,0,,,M,,M,,*57
$GPGSA,A,1,,,,,,,,,,,,,,,*1E
$GLGSA,A,1,,,,,,,,,,,,,,,*02
$GPGSV,1,1,01,11,,,34*7F
$GLGSV,1,1,01,73,,,*60
$GNRMC,000202.100,V,,,,,0.00,0.00,060180,,,N*5D
$GNVTG,0.00,T,,M,0.00,N,0.00,K,N*2C
$GNGGA,000203.100,,,,,0,0,,,M,,M,,*56
$GPGSA,A,1,,,,,,,,,,,,,,,*1E
$GLGSA,A,1,,,,,,,,,,,,,,,*02
$GNRMC,000203.100,V,,,,,0.00,0.00,060180,,,N*5C
$GNVTG,0.00,T,,M,0.00,N,0.00,K,N*2C
$GNGGA,000204.100,,,,,0,0,,,M,,M,,*51
$GPGSA,A,1,,,,,,,,,,,,,,,*1E
$GLGSA,A,1,,,,,,,,,,,,,,,*02
$GNRMC,000204.100,V,,,,,0.00,0.00,060180,,,N*5B
$GNVTG,0.00,T,,M,0.00,N,0.00,K,N*2C
$GNGGA,000205.100,,,,,0,0,,,M,,M,,*50
$GPGSA,A,1,,,,,,,,,,,,,,,*1E
$GLGSA,A,1,,,,,,,,,,,,,,,*02
$GNRMC,000205.100,V,,,,,0.00,0.00,060180,,,N*5A
$GNVTG,0.00,T,,M,0.00,N,0.00,K,N*2C
$GNGGA,000206.100,,,,,0,0,,,M,,M,,*53
$GPGSA,A,1,,,,,,,,,,,,,,,*1E
$GLGSA,A,1,,,,,,,,,,,,,,,*02
$GNRMC,000206.100,V,,,,,0.00,0.00,060180,,,N*59
$GNVTG,0.00,T,,M,0.00,N,0.00,K,N*2C
$GNGGA,000207.100,,,,,0,0,,,M,,M,,*52
$GPGSA,A,1,,,,,,,,,,,,,,,*1E
$GLGSA,A,1,,,,,,,,,,,,,,,*02
$GPGSV,1,1,03,11,,,35,06,,,38,25,,,38*7D
$GLGSV,1,1,01,73,,,*60
$GNRMC,000207.100,V,,,,,0.00,0.00,060180,,,N*58
$GNVTG,0.00,T,,M,0.00,N,0.00,K,N*2C
$GNGGA,000207.957,,,,,0,0,,,M,,M,,*58
$GPGSA,A,1,,,,,,,,,,,,,,,*1E
$GLGSA,A,1,,,,,,,,,,,,,,,*02
$GNRMC,000207.957,V,,,,,0.00,0.00,060180,,,N*52
$GNVTG,0.00,T,,M,0.00,N,0.00,K,N*2C
$GNGGA,000208.957,,,,,0,0,,,M,,M,,*57
$GPGSA,A,1,,,,,,,,,,,,,,,*1E
$GLGSA,A,1,,,,,,,,,,,,,,,*02
$GNRMC,000208.957,V,,,,,0.00,0.00,060180,,,N*5D
$GNVTG,0.00,T,,M,0.00,N,0.00,K,N*2C
$GNGGA,051256.085,,,,,0,0,,,M,,M,,*5E
$GPGSA,A,1,,,,,,,,,,,,,,,*1E
$GLGSA,A,1,,,,,,,,,,,,,,,*02
$GNRMC,051256.085,V,,,,,0.00,0.00,261124,,,N*59
$GNVTG,0.00,T,,M,0.00,N,0.00,K,N*2C
$GNGGA,051257.085,,,,,0,0,,,M,,M,,*5F
$GPGSA,A,1,,,,,,,,,,,,,,,*1E
$GLGSA,A,1,,,,,,,,,,,,,,,*02
$GNRMC,051257.085,V,,,,,5.27,355.09,261124,,,N*52
$GNVTG,355.09,T,,M,5.27,N,9.77,K,N*2F
$GNGGA,051258.085,3850.2213,N,09447.3435,W,1,4,2.57,323.3,M,-30.0,M,,*7E
$GPGSA,A,2,11,06,25,12,,,,,,,,,2.76,2.57,0.99*02
$GLGSA,A,2,,,,,,,,,,,,,2.76,2.57,0.99*1C
$GPGSV,4,1,13,11,78,329,35,12,67,265,25,20,59,170,23,06,44,045,38*7E
$GPGSV,4,2,13,19,35,092,,25,32,309,38,05,26,190,,17,10,103,*73
$GPGSV,4,3,13,09,08,069,,29,06,294,,22,04,152,,24,04,228,*78
$GPGSV,4,4,13,04,01,042,*48
$GLGSV,1,1,00*65
$GNRMC,051258.085,A,3850.2213,N,09447.3435,W,4.73,356.16,261124,,,A*62
$GNVTG,356.16,T,,M,4.73,N,8.76,K,A*2D
$GNGGA,051300.000,3850.2263,N,09447.3437,W,1,7,1.37,332.4,M,-30.0,M,,*7B
$GPGSA,A,3,11,06,25,12,19,17,20,,,,,,1.63,1.37,0.88*0D
$GLGSA,A,3,,,,,,,,,,,,,1.63,1.37,0.88*1F
$GNRMC,051300.000,A,3850.2263,N,09447.3437,W,3.35,357.90,261124,,,A*6C
$GNVTG,357.90,T,,M,3.35,N,6.21,K,A*2B
$GNGGA,051301.000,3850.2271,N,09447.3437,W,1,4,2.83,333.2,M,-30.0,M,,*71
$GPGSA,A,3,11,06,25,19,,,,,,,,,2.98,2.83,0.95*0D
$GLGSA,A,3,,,,,,,,,,,,,2.98,2.83,0.95*18
$GNRMC,051301.000,A,3850.2271,N,09447.3437,W,2.17,355.96,261124,,,A*6B
$GNVTG,355.96,T,,M,2.17,N,4.03,K,A*2C
$GNGGA,051302.000,3850.2263,N,09447.3433,W,1,7,1.37,332.4,M,-30.0,M,,*7D
$GPGSA,A,3,11,06,25,20,12,19,17,,,,,,1.63,1.37,0.88*0D
$GLGSA,A,3,,,,,,,,,,,,,1.63,1.37,0.88*1F
$GNRMC,051302.000,A,3850.2263,N,09447.3433,W,1.45,1.25,261124,,,A*61
$GNVTG,1.25,T,,M,1.45,N,2.68,K,A*29
$GNGGA,051303.000,3850.2270,N,09447.3433,W,1,6,1.46,333.6,M,-30.0,M,,*7A
$GPGSA,A,3,11,06,25,20,19,17,,,,,,,1.70,1.46,0.88*0A
$GLGSA,A,3,,,,,,,,,,,,,1.70,1.46,0.88*1B
$GNRMC,051303.000,A,3850.2270,N,09447.3433,W,1.21,2.13,261124,,,A*66
$GNVTG,2.13,T,,M,1.21,N,2.24,K,A*25
$GNGGA,051304.000,3850.2271,N,09447.3433,W,1,6,1.46,333.9,M,-30.0,M,,*73
$GPGSA,A,3,11,06,25,20,19,17,,,,,,,1.70,1.46,0.88*0A
$GLGSA,A,3,,,,,,,,,,,,,1.70,1.46,0.88*1B
$GPGSV,4,1,14,11,78,329,35,12,67,265,27,20,59,170,24,06,44,045,38*7C
$GPGSV,4,2,14,51,43,199,,19,35,092,22,25,32,309,39,05,26,190,24*74
$GPGSV,4,3,14,17,10,103,19,09,08,069,21,29,06,294,,22,04,152,*7B
$GPGSV,4,4,14,24,04,228,,04,01,042,*75
$GLGSV,1,1,00*65
$GNRMC,051304.000,A,3850.2271,N,09447.3433,W,1.11,358.49,261124,,,A*60
$GNVTG,358.49,T,,M,1.11,N,2.06,K,A*25
$GNGGA,051305.000,3850.2277,N,09447.3433,W,1,7,1.37,334.8,M,-30.0,M,,*75
$GPGSA,A,3,11,06,25,20,12,19,17,,,,,,1.63,1.37,0.88*0D
$GLGSA,A,3,,,,,,,,,,,,,1.63,1.37,0.88*1F
$GNRMC,051305.000,A,3850.2277,N,09447.3433,W,1.03,356.78,261124,,,A*68
$GNVTG,356.78,T,,M,1.03,N,1.90,K,A*26
$GNGGA,051306.000,3850.2278,N,09447.3432,W,1,7,1.37,335.2,M,-30.0,M,,*73
$GPGSA,A,3,11,06,25,20,12,19,17,,,,,,1.63,1.37,0.88*0D
$GLGSA,A,3,,,,,,,,,,,,,1.63,1.37,0.88*1F
$GNRMC,051306.000,A,3850.2278,N,09447.3432,W,0.89,0.95,261124,,,A*65
$GNVTG,0.95,T,,M,0.89,N,1.64,K,A*2D
$GNGGA,051307.000,3850.2281,N,09447.3432,W,1,7,1.37,335.6,M,-30.0,M,,*70
$GPGSA,A,3,11,06,25,20,12,19,17,,,,,,1.63,1.37,0.88*0D
$GLGSA,A,3,,,,,,,,,,,,,1.63,1.37,0.88*1F
$GNRMC,051307.000,A,3850.2281,N,09447.3432,W,0.86,5.02,261124,,,A*66
$GNVTG,5.02,T,,M,0.86,N,1.59,K,A*27
$GNGGA,051308.000,3850.2281,N,09447.3430,W,1,7,1.37,335.0,M,-30.0,M,,*7B
$GPGSA,A,3,11,06,25,20,12,19,17,,,,,,1.63,1.37,0.88*0D
$GLGSA,A,3,,,,,,,,,,,,,1.63,1.37,0.88*1F
$GNRMC,051308.000,A,3850.2281,N,09447.3430,W,0.79,11.42,261124,,,A*5A
$GNVTG,11.42,T,,M,0.79,N,1.46,K,A*18
$GNGGA,051309.000,3850.2281,N,09447.3430,W,1,7,1.37,334.9,M,-30.0,M,,*72
$GPGSA,A,3,11,06,25,20,12,19,17,,,,,,1.63,1.37,0.88*0D
$GLGSA,A,3,,,,,,,,,,,,,1.63,1.37,0.88*1F
$GPGSV,4,1,14,11,78,330,35,12,67,265,28,20,59,170,23,06,44,045,38*7C
$GPGSV,4,2,14,19,35,092,22,25,32,309,39,48,30,231,,05,26,190,24*79
$GPGSV,4,3,14,17,10,103,20,09,08,068,24,29,06,294,25,22,04,152,*72
$GPGSV,4,4,14,24,04,228,,04,01,042,*75
$GLGSV,1,1,00*65
$GNRMC,051309.000,A,3850.2281,N,09447.3430,W,0.76,357.82,261124,,,A*69
$GNVTG,357.82,T,,M,0.76,N,1.41,K,A*2D
$GNGGA,051310.000,3850.2282,N,09447.3430,W,1,7,1.37,334.8,M,-30.0,M,,*78
$GPGSA,A,3,11,06,25,20,12,19,17,,,,,,1.63,1.37,0.88*0D
$GLGSA,A,3,,,,,,,,,,,,,1.63,1.37,0.88*1F
$GNRMC,051310.000,A,3850.2282,N,09447.3430,W,0.80,357.11,261124,,,A*61
$GNVTG,357.11,T,,M,0.80,N,1.48,K,A*27
$GNGGA,051311.000,3850.2281,N,09447.3430,W,1,7,1.37,335.2,M,-30.0,M,,*71
$GPGSA,A,3,11,06,25,20,12,19,17,,,,,,1.63,1.37,0.88*0D
$GLGSA,A,3,,,,,,,,,,,,,1.63,1.37,0.88*1F
$GNRMC,051311.000,A,3850.2281,N,09447.3430,W,0.60,357.69,261124,,,A*62
$GNVTG,357.69,T,,M,0.60,N,1.10,K,A*2B
$GNGGA,051312.000,3850.2280,N,09447.3430,W,1,7,1.37,335.3,M,-30.0,M,,*72
$GPGSA,A,3,11,06,25,20,12,19,17,,,,,,1.63,1.37,0.88*0D
$GLGSA,A,3,,,,,,,,,,,,,1.63,1.37,0.88*1F
$GNRMC,051312.000,A,3850.2280,N,09447.3430,W,0.45,357.69,261124,,,A*67
$GNVTG,357.69,T,,M,0.45,N,0.83,K,A*27
$GNGGA,051313.000,3850.2279,N,09447.3429,W,1,7,1.37,335.2,M,-30.0,M,,*7C
$GPGSA,A,3,11,06,25,20,12,19,17,,,,,,1.63,1.37,0.88*0D
$GLGSA,A,3,,,,,,,,,,,,,1.63,1.37,0.88*1F
$GNRMC,051313.000,A,3850.2279,N,09447.3429,W,0.31,357.69,261124,,,A*6B
$GNVTG,357.69,T,,M,0.31,N,0.58,K,A*22
$GNGGA,051314.000,3850.2278,N,09447.3429,W,1,7,1.37,335.1,M,-30.0,M,,*79
$GPGSA,A,3,11,06,25,20,12,19,17,,,,,,1.63,1.37,0.88*0D
$GLGSA,A,3,,,,,,,,,,,,,1.63,1.37,0.88*1F
$GPGSV,4,1,14,11,78,330,35,12,67,265,25,20,59,170,23,06,44,045,38*71
$GPGSV,4,2,14,19,35,092,22,25,32,309,39,48,30,231,,05,26,190,23*7E
$GPGSV,4,3,14,17,10,103,21,09,08,068,24,29,06,294,24,22,04,152,*72
$GPGSV,4,4,14,24,04,228,,04,01,042,*75
$GLGSV,1,1,00*65
$GNRMC,051314.000,A,3850.2278,N,09447.3429,W,0.23,357.69,261124,,,A*6E
$GNVTG,357.69,T,,M,0.23,N,0.42,K,A*2A
$GNGGA,051315.000,3850.2278,N,09447.3429,W,1,7,1.37,335.1,M,-30.0,M,,*78
$GPGSA,A,3,11,06,25,20,12,19,17,,,,,,1.63,1.37,0.88*0D
$GLGSA,A,3,,,,,,,,,,,,,1.63,1.37,0.88*1F
$GNRMC,051315.000,A,3850.2278,N,09447.3429,W,0.16,357.69,261124,,,A*69
$GNVTG,357.69,T,,M,0.16,N,0.30,K,A*29
$GNGGA,051316.000,3850.2277,N,09447.3428,W,1,7,1.37,335.0,M,-30.0,M,,*74
$GPGSA,A,3,11,06,25,20,12,19,17,,,,,,1.63,1.37,0.88*0D
$GLGSA,A,3,,,,,,,,,,,,,1.63,1.37,0.88*1F
$GNRMC,051316.000,A,3850.2277,N,09447.3428,W,0.18,357.69,261124,,,A*6A
$GNVTG,357.69,T,,M,0.18,N,0.33,K,A*24
$GNGGA,051317.000,3850.2279,N,09447.3427,W,1,7,1.37,334.7,M,-30.0,M,,*72
$GPGSA,A,3,11,06,25,20,12,19,17,,,,,,1.63,1.37,0.88*0D
$GLGSA,A,3,,,,,,,,,,,,,1.63,1.37,0.88*1F
$GNRMC,051317.000,A,3850.2279,N,09447.3427,W,0.43,357.69,261124,,,A*64
$GNVTG,357.69,T,,M,0.43,N,0.80,K,A*22
