$GNGGA,020638.000,3850.2318,N,09447.3427,W,2,12,0.91,328.1,M,-30.0,M,,*4B
$GPGSA,A,3,22,30,17,14,24,19,02,,,,,,1.16,0.91,0.72*05
$GLGSA,A,3,81,88,79,80,82,,,,,,,,1.16,0.91,0.72*10
$GPGSV,3,1,12,22,76,055,20,17,68,019,35,19,64,285,29,14,58,104,29*75
$GPGSV,3,2,12,06,44,191,14,48,35,222,25,24,24,308,27,03,18,082,*70
$GPGSV,3,3,12,30,16,172,14,02,14,041,31,11,07,205,,13,05,235,*7C
$GLGSV,2,1,07,79,82,098,25,81,73,014,22,82,52,226,25,80,37,327,28*67
$GLGSV,2,2,07,78,28,139,,88,19,035,25,83,10,217,*5B
$GNRMC,020638.000,A,3850.2318,N,09447.3427,W,0.31,110.46,261124,,,D*60
$GNVTG,110.46,T,,M,0.31,N,0.57,K,D*24
$GNGGA,020639.000,3850.2319,N,09447.3427,W,2,13,0.87,328.1,M,-30.0,M,,*4D
$GPGSA,A,3,22,30,17,14,24,06,19,02,,,,,1.13,0.87,0.72*01
$GLGSA,A,3,81,88,79,80,82,,,,,,,,1.13,0.87,0.72*12
$GNRMC,020639.000,A,3850.2319,N,09447.3427,W,0.31,110.46,261124,,,D*60
$GNVTG,110.46,T,,M,0.31,N,0.58,K,D*2B
$GNGGA,020640.000,3850.2321,N,09447.3426,W,2,13,0.87,328.1,M,-30.0,M,,*49
$GPGSA,A,3,22,30,17,14,24,06,19,02,,,,,1.13,0.87,0.72*01
$GLGSA,A,3,81,88,79,80,82,,,,,,,,1.13,0.87,0.72*12
$GNRMC,020640.000,A,3850.2321,N,09447.3426,W,0.09,110.46,261124,,,D*6F
$GNVTG,110.46,T,,M,0.09,N,0.16,K,D*2A
$GNGGA,020641.000,3850.2321,N,09447.3426,W,2,13,0.87,328.1,M,-30.0,M,,*48
$GPGSA,A,3,22,30,17,14,24,06,19,02,,,,,1.13,0.87,0.72*01
$GLGSA,A,3,81,88,79,80,82,,,,,,,,1.13,0.87,0.72*12
$GNRMC,020641.000,A,3850.2321,N,09447.3426,W,0.30,110.46,261124,,,D*64
$GNVTG,110.46,T,,M,0.30,N,0.56,K,D*24
$GNGGA,020642.000,3850.2320,N,09447.3426,W,2,13,0.87,328.1,M,-30.0,M,,*4A
$GPGSA,A,3,22,30,17,14,24,06,19,02,,,,,1.13,0.87,0.72*01
$GLGSA,A,3,81,88,79,80,82,,,,,,,,1.13,0.87,0.72*12
$GNRMC,020642.000,A,3850.2320,N,09447.3426,W,0.32,110.46,261124,,,D*64
$GNVTG,110.46,T,,M,0.32,N,0.59,K,D*29
$GNGGA,020643.000,3850.2320,N,09447.3425,W,2,13,0.87,328.1,M,-30.0,M,,*48
$GPGSA,A,3,22,30,17,14,24,06,19,02,,,,,1.13,0.87,0.72*01
$GLGSA,A,3,81,88,79,80,82,,,,,,,,1.13,0.87,0.72*12
$GPGSV,3,1,12,22,76,055,21,17,68,019,36,19,64,285,29,14,58,104,30*7F
$GPGSV,3,2,12,06,44,191,16,48,35,222,25,24,24,308,27,03,18,082,*72
$GPGSV,3,3,12,30,16,172,13,02,14,041,31,11,07,205,,13,05,235,*7B
$GLGSV,2,1,07,79,82,098,27,81,73,014,22,82,52,226,27,80,37,327,28*67
$GLGSV,2,2,07,78,28,139,,88,19,035,25,83,10,217,*5B
$GNRMC,020643.000,A,3850.2320,N,09447.3425,W,0.21,110.46,261124,,,D*64
$GNVTG,110.46,T,,M,0.21,N,0.39,K,D*2D
$GNGGA,020644.000,3850.2319,N,09447.3426,W,2,13,0.87,328.0,M,-30.0,M,,*47
$GPGSA,A,3,22,30,17,14,24,06,19,02,,,,,1.13,0.87,0.72*01
$GLGSA,A,3,81,88,79,80,82,,,,,,,,1.13,0.87,0.72*12
$GNRMC,020644.000,A,3850.2319,N,09447.3426,W,0.11,110.46,261124,,,D*69
$GNVTG,110.46,T,,M,0.11,N,0.20,K,D*26
$GNGGA,020645.000,3850.2319,N,09447.3426,W,2,13,0.87,328.0,M,-30.0,M,,*46
$GPGSA,A,3,22,30,17,14,24,06,19,02,,,,,1.13,0.87,0.72*01
$GLGSA,A,3,81,88,79,80,82,,,,,,,,1.13,0.87,0.72*12
$GNRMC,020645.000,A,3850.2319,N,09447.3426,W,0.52,110.46,261124,,,D*6F
$GNVTG,110.46,T,,M,0.52,N,0.96,K,D*2C
$GNGGA,020646.000,3850.2319,N,09447.3426,W,2,12,0.99,328.0,M,-30.0,M,,*4B
$GPGSA,A,3,22,17,14,24,06,19,02,,,,,,1.28,0.99,0.80*08
$GLGSA,A,3,81,88,79,80,82,,,,,,,,1.28,0.99,0.80*18
$GNRMC,020646.000,A,3850.2319,N,09447.3426,W,0.72,190.48,261124,,,D*68
$GNVTG,190.48,T,,M,0.72,N,1.34,K,D*21
$GNGGA,020647.000,3850.2318,N,09447.3427,W,2,12,0.99,327.9,M,-30.0,M,,*4C
$GPGSA,A,3,22,17,14,24,06,19,02,,,,,,1.28,0.99,0.80*08
$GLGSA,A,3,81,88,79,80,82,,,,,,,,1.28,0.99,0.80*18
$GNRMC,020647.000,A,3850.2318,N,09447.3427,W,0.38,190.48,261124,,,D*67
$GNVTG,190.48,T,,M,0.38,N,0.70,K,D*2E
$GNGGA,020648.000,3850.2317,N,09447.3427,W,2,12,0.99,327.8,M,-30.0,M,,*4D
$GPGSA,A,3,22,17,14,24,06,19,02,,,,,,1.28,0.99,0.80*08
$GLGSA,A,3,81,88,79,80,82,,,,,,,,1.28,0.99,0.80*18
$GPGSV,3,1,12,22,76,055,21,17,68,019,36,19,64,285,29,14,58,104,31*7E
$GPGSV,3,2,12,06,44,191,14,48,35,222,25,24,24,308,28,03,18,082,*7F
$GPGSV,3,3,12,30,16,172,11,02,14,041,32,11,07,205,15,13,05,235,*7E
$GLGSV,2,1,07,79,82,098,25,81,73,014,23,82,52,226,27,80,37,327,28*64
$GLGSV,2,2,07,78,28,139,,88,19,035,26,83,10,217,*58
$GNRMC,020648.000,A,3850.2317,N,09447.3427,W,0.40,190.48,261124,,,D*68
$GNVTG,190.48,T,,M,0.40,N,0.74,K,D*25
$GNGGA,020649.000,3850.2316,N,09447.3428,W,2,12,0.99,327.8,M,-30.0,M,,*42
$GPGSA,A,3,22,17,14,24,06,19,02,,,,,,1.28,0.99,0.80*08
$GLGSA,A,3,81,88,79,80,82,,,,,,,,1.28,0.99,0.80*18
$GNRMC,020649.000,A,3850.2316,N,09447.3428,W,0.21,190.48,261124,,,D*60
$GNVTG,190.48,T,,M,0.21,N,0.38,K,D*2A
$GNGGA,020650.000,3850.2317,N,09447.3428,W,2,12,0.99,327.8,M,-30.0,M,,*4B
$GPGSA,A,3,22,17,14,24,06,19,02,,,,,,1.28,0.99,0.80*08
$GLGSA,A,3,81,88,79,80,82,,,,,,,,1.28,0.99,0.80*18
$GNRMC,020650.000,A,3850.2317,N,09447.3428,W,0.15,190.48,261124,,,D*6E
$GNVTG,190.48,T,,M,0.15,N,0.28,K,D*2C
$GNGGA,020651.000,3850.2317,N,09447.3428,W,2,12,0.99,327.8,M,-30.0,M,,*4A
$GPGSA,A,3,22,17,14,24,06,19,02,,,,,,1.28,0.99,0.80*08
$GLGSA,A,3,81,88,79,80,82,,,,,,,,1.28,0.99,0.80*18
$GNRMC,020651.000,A,3850.2317,N,09447.3428,W,0.18,190.48,261124,,,D*62
$GNVTG,190.48,T,,M,0.18,N,0.33,K,D*2B
$GNGGA,020652.000,3850.2318,N,09447.3429,W,2,11,1.16,327.8,M,-30.0,M,,*42
$GPGSA,A,3,22,17,14,24,19,02,,,,,,,1.44,1.16,0.85*07
$GLGSA,A,3,81,88,79,80,82,,,,,,,,1.44,1.16,0.85*11
$GNRMC,020652.000,A,3850.2318,N,09447.3429,W,0.25,190.48,261124,,,D*61
$GNVTG,190.48,T,,M,0.25,N,0.47,K,D*26
$GNGGA,020653.000,3850.2318,N,09447.3428,W,2,11,1.16,327.8,M,-30.0,M,,*42
$GPGSA,A,3,22,17,14,24,19,02,,,,,,,1.44,1.16,0.85*07
$GLGSA,A,3,81,88,79,80,82,,,,,,,,1.44,1.16,0.85*11
$GPGSV,3,1,12,22,76,055,21,17,68,019,36,19,64,285,29,14,58,104,31*7E
$GPGSV,3,2,12,06,44,191,13,48,35,222,25,24,24,308,28,03,18,082,*78
$GPGSV,3,3,12,30,16,172,13,02,14,041,33,11,07,205,14,13,05,235,*7C
$GLGSV,2,1,07,79,82,098,25,81,73,014,23,82,52,226,27,80,37,327,27*6B
$GLGSV,2,2,07,78,28,139,,88,19,035,26,83,10,217,*58
$GNRMC,020653.000,A,3850.2318,N,09447.3428,W,0.54,190.48,261124,,,D*67
$GNVTG,190.48,T,,M,0.54,N,1.00,K,D*22
$GNGGA,020654.000,3850.2316,N,09447.3428,W,2,11,1.16,327.8,M,-30.0,M,,*4B
$GPGSA,A,3,22,17,14,24,19,02,,,,,,,1.44,1.16,0.85*07
$GLGSA,A,3,81,88,79,80,82,,,,,,,,1.44,1.16,0.85*11
$GNRMC,020654.000,A,3850.2316,N,09447.3428,W,0.55,190.48,261124,,,D*6F
$GNVTG,190.48,T,,M,0.55,N,1.01,K,D*22
$GNGGA,020655.000,3850.2316,N,09447.3429,W,2,11,1.16,327.8,M,-30.0,M,,*4B
$GPGSA,A,3,22,17,14,24,19,02,,,,,,,1.44,1.16,0.85*07
$GLGSA,A,3,81,88,79,80,82,,,,,,,,1.44,1.16,0.85*11
$GNRMC,020655.000,A,3850.2316,N,09447.3429,W,0.34,190.48,261124,,,D*68
$GNVTG,190.48,T,,M,0.34,N,0.63,K,D*20
$GNGGA,020656.000,3850.2315,N,09447.3428,W,2,11,1.16,327.8,M,-30.0,M,,*4A
$GPGSA,A,3,22,17,14,24,19,02,,,,,,,1.44,1.16,0.85*07
$GLGSA,A,3,81,88,79,80,82,,,,,,,,1.44,1.16,0.85*11
$GNRMC,020656.000,A,3850.2315,N,09447.3428,W,0.29,190.48,261124,,,D*65
$GNVTG,190.48,T,,M,0.29,N,0.55,K,D*29
$GNGGA,020657.000,3850.2315,N,09447.3428,W,2,12,0.99,327.8,M,-30.0,M,,*4E
$GPGSA,A,3,22,17,14,24,06,19,02,,,,,,1.28,0.99,0.80*08
$GLGSA,A,3,81,88,79,80,82,,,,,,,,1.28,0.99,0.80*18
$GNRMC,020657.000,A,3850.2315,N,09447.3428,W,0.17,190.48,261124,,,D*69
$GNVTG,190.48,T,,M,0.17,N,0.31,K,D*26
$GNGGA,020658.000,3850.2314,N,09447.3428,W,2,12,0.99,327.7,M,-30.0,M,,*4F
$GPGSA,A,3,22,17,14,24,06,19,02,,,,,,1.28,0.99,0.80*08
$GLGSA,A,3,81,88,79,80,82,,,,,,,,1.28,0.99,0.80*18
$GPGSV,3,1,12,22,76,055,21,17,68,019,36,19,64,285,28,14,58,104,30*7E
$GPGSV,3,2,12,06,44,191,15,48,35,222,25,24,24,308,28,03,18,082,*7E
$GPGSV,3,3,12,30,16,172,15,02,14,041,33,11,07,205,16,13,05,235,*78
$GLGSV,2,1,07,79,82,098,25,81,73,014,25,82,52,226,26,80,37,327,27*6C
$GLGSV,2,2,07,78,28,139,,88,19,035,27,83,10,217,*59
$GNRMC,020658.000,A,3850.2314,N,09447.3428,W,0.29,190.48,261124,,,D*6A
$GNVTG,190.48,T,,M,0.29,N,0.54,K,D*28
$GNGGA,020659.000,3850.2315,N,09447.3428,W,2,11,1.16,327.8,M,-30.0,M,,*45
$GPGSA,A,3,22,17,14,24,19,02,,,,,,,1.44,1.16,0.85*07
$GLGSA,A,3,81,88,79,80,82,,,,,,,,1.44,1.16,0.85*11
$GNRMC,020659.000,A,3850.2315,N,09447.3428,W,0.52,190.48,261124,,,D*66
$GNVTG,190.48,T,,M,0.52,N,0.97,K,D*2B
$GNGGA,020700.000,3850.2316,N,09447.3428,W,2,11,1.16,328.0,M,-30.0,M,,*4C
$GPGSA,A,3,22,17,14,24,19,02,,,,,,,1.44,1.16,0.85*07
$GLGSA,A,3,81,88,79,80,82,,,,,,,,1.44,1.16,0.85*11
$GNRMC,020700.000,A,3850.2316,N,09447.3428,W,0.09,190.48,261124,,,D*66
$GNVTG,190.48,T,,M,0.09,N,0.16,K,D*2C
$GNGGA,020701.000,3850.2315,N,09447.3427,W,2,12,0.95,328.0,M,-30.0,M,,*48
$GPGSA,A,3,22,17,14,24,19,02,,,,,,,1.23,0.95,0.77*01
$GLGSA,A,3,78,81,88,79,80,82,,,,,,,1.23,0.95,0.77*18
$GNRMC,020701.000,A,3850.2315,N,09447.3427,W,0.71,164.29,261124,,,D*68
$GNVTG,164.29,T,,M,0.71,N,1.31,K,D*2B
$GNGGA,020702.000,3850.2314,N,09447.3427,W,2,12,0.95,327.9,M,-30.0,M,,*4C
$GPGSA,A,3,22,17,14,24,19,02,,,,,,,1.23,0.95,0.78*0E
$GLGSA,A,3,78,81,88,79,80,82,,,,,,,1.23,0.95,0.78*17
$GNRMC,020702.000,A,3850.2314,N,09447.3427,W,0.64,164.12,261124,,,D*66
$GNVTG,164.12,T,,M,0.64,N,1.19,K,D*2D
$GNGGA,020703.000,3850.2312,N,09447.3427,W,2,12,0.95,327.8,M,-30.0,M,,*4A
$GPGSA,A,3,22,17,14,24,19,02,,,,,,,1.23,0.95,0.78*0E
$GLGSA,A,3,78,81,88,79,80,82,,,,,,,1.23,0.95,0.78*17
$GPGSV,3,1,12,22,76,055,20,17,68,019,36,19,64,285,28,14,58,104,29*77
$GPGSV,3,2,12,06,45,191,,48,35,222,24,24,24,308,27,03,18,081,17*70
$GPGSV,3,3,12,30,16,172,15,02,13,041,33,11,07,205,16,13,05,235,*7F
$GLGSV,2,1,07,79,82,098,24,81,73,014,26,82,52,226,27,80,37,327,26*6E
$GLGSV,2,2,07,78,28,139,17,88,19,035,27,83,10,217,*5F
$GNRMC,020703.000,A,3850.2312,N,09447.3427,W,0.72,180.17,261124,,,D*69
$GNVTG,180.17,T,,M,0.72,N,1.33,K,D*2D
$GNGGA,020704.000,3850.2312,N,09447.3428,W,2,12,0.95,327.7,M,-30.0,M,,*4D
$GPGSA,A,3,22,17,14,24,19,02,,,,,,,1.23,0.95,0.77*01
$GLGSA,A,3,78,81,88,79,80,82,,,,,,,1.23,0.95,0.77*18
$GNRMC,020704.000,A,3850.2312,N,09447.3428,W,0.52,180.17,261124,,,D*63
$GNVTG,180.17,T,,M,0.52,N,0.96,K,D*21
$GNGGA,020705.000,3850.2310,N,09447.3427,W,2,12,0.95,327.7,M,-30.0,M,,*41
$GPGSA,A,3,22,17,14,24,19,02,,,,,,,1.23,0.95,0.77*01
$GLGSA,A,3,78,81,88,79,80,82,,,,,,,1.23,0.95,0.77*18
$GNRMC,020705.000,A,3850.2310,N,09447.3427,W,0.45,180.17,261124,,,D*69
$GNVTG,180.17,T,,M,0.45,N,0.84,K,D*24
$GNGGA,020706.000,3850.2310,N,09447.3428,W,2,11,1.16,327.6,M,-30.0,M,,*45
$GPGSA,A,3,22,17,14,24,19,02,,,,,,,1.44,1.16,0.85*07
$GLGSA,A,3,81,88,79,80,82,,,,,,,,1.44,1.16,0.85*11
$GNRMC,020706.000,A,3850.2310,N,09447.3428,W,0.48,180.17,261124,,,D*68
$GNVTG,180.17,T,,M,0.48,N,0.89,K,D*24
$GNGGA,020707.000,3850.2309,N,09447.3427,W,2,11,1.16,327.6,M,-30.0,M,,*43
$GPGSA,A,3,22,17,14,24,19,02,,,,,,,1.44,1.16,0.85*07
$GLGSA,A,3,81,88,79,80,82,,,,,,,,1.44,1.16,0.85*11
$GNRMC,020707.000,A,3850.2309,N,09447.3427,W,0.39,180.17,261124,,,D*68
$GNVTG,180.17,T,,M,0.39,N,0.72,K,D*26
$GNGGA,020708.000,3850.2309,N,09447.3426,W,2,11,1.16,327.6,M,-30.0,M,,*4D
$GPGSA,A,3,22,17,14,24,19,02,,,,,,,1.44,1.16,0.85*07
$GLGSA,A,3,81,88,79,80,82,,,,,,,,1.44,1.16,0.85*11
$GPGSV,3,1,12,22,76,055,19,17,68,019,36,19,64,285,28,14,58,104,28*7C
$GPGSV,3,2,12,06,45,191,,48,35,222,26,24,24,308,27,03,18,081,17*72
$GPGSV,3,3,12,30,16,172,11,02,13,041,33,11,08,205,17,13,05,235,*75
$GLGSV,2,1,07,79,82,098,25,81,73,014,25,82,52,226,27,80,37,327,25*6F
$GLGSV,2,2,07,78,28,139,,88,19,035,27,83,10,217,*59
$GNRMC,020708.000,A,3850.2309,N,09447.3426,W,0.15,180.17,261124,,,D*68
$GNVTG,180.17,T,,M,0.15,N,0.28,K,D*27
$GNGGA,020709.000,3850.2309,N,09447.3426,W,2,11,1.16,327.6,M,-30.0,M,,*4C
$GPGSA,A,3,22,17,14,24,19,02,,,,,,,1.44,1.16,0.85*07
$GLGSA,A,3,81,88,79,80,82,,,,,,,,1.44,1.16,0.85*11
$GNRMC,020709.000,A,3850.2309,N,09447.3426,W,0.15,180.17,261124,,,D*69
$GNVTG,180.17,T,,M,0.15,N,0.27,K,D*28
$GNGGA,020710.000,3850.2309,N,09447.3427,W,2,11,1.16,327.5,M,-30.0,M,,*46
$GPGSA,A,3,22,17,14,24,19,02,,,,,,,1.44,1.16,0.85*07
$GLGSA,A,3,81,88,79,80,82,,,,,,,,1.44,1.16,0.85*11
$GNRMC,020710.000,A,3850.2309,N,09447.3427,W,0.20,180.17,261124,,,D*66
$GNVTG,180.17,T,,M,0.20,N,0.36,K,D*2E
$GNGGA,020711.000,3850.2308,N,09447.3427,W,2,11,1.16,327.5,M,-30.0,M,,*46
$GPGSA,A,3,22,17,14,24,19,02,,,,,,,1.44,1.16,0.85*07
$GLGSA,A,3,81,88,79,80,82,,,,,,,,1.44,1.16,0.85*11
$GNRMC,020711.000,A,3850.2308,N,09447.3427,W,0.41,180.17,261124,,,D*61
$GNVTG,180.17,T,,M,0.41,N,0.76,K,D*2D
$GNGGA,020712.000,3850.2308,N,09447.3427,W,2,11,1.16,327.4,M,-30.0,M,,*44
$GPGSA,A,3,22,17,14,24,19,02,,,,,,,1.44,1.16,0.85*07
$GLGSA,A,3,81,88,79,80,82,,,,,,,,1.44,1.16,0.85*11
$GNRMC,020712.000,A,3850.2308,N,09447.3427,W,0.43,180.17,261124,,,D*60
$GNVTG,180.17,T,,M,0.43,N,0.79,K,D*20
$GNGGA,020713.000,3850.2307,N,09447.3427,W,2,11,1.16,327.4,M,-30.0,M,,*4A
$GPGSA,A,3,22,17,14,24,19,02,,,,,,,1.44,1.16,0.85*07
$GLGSA,A,3,81,88,79,80,82,,,,,,,,1.44,1.16,0.85*11
$GPGSV,3,1,12,22,76,055,18,17,68,019,36,19,64,285,28,14,57,105,28*73
$GPGSV,3,2,12,06,45,191,,48,35,222,24,24,24,308,27,03,18,081,16*71
$GPGSV,3,3,12,30,16,172,12,02,13,041,33,11,08,205,17,13,05,234,*77
$GLGSV,2,1,07,79,82,098,26,81,73,014,25,82,52,226,27,80,37,327,25*6C
$GLGSV,2,2,07,78,28,139,,88,19,035,27,83,10,217,*59
$GNRMC,020713.000,A,3850.2307,N,09447.3427,W,0.13,180.17,261124,,,D*6B
$GNVTG,180.17,T,,M,0.13,N,0.24,K,D*2D
$GNGGA,020714.000,3850.2307,N,09447.3427,W,2,11,1.16,327.4,M,-30.0,M,,*4D
$GPGSA,A,3,22,17,14,24,19,02,,,,,,,1.44,1.16,0.85*07
$GLGSA,A,3,81,88,79,80,82,,,,,,,,1.44,1.16,0.85*11
$GNRMC,020714.000,A,3850.2307,N,09447.3427,W,0.12,180.17,261124,,,D*6D
$GNVTG,180.17,T,,M,0.12,N,0.22,K,D*2A
$GNGGA,020715.000,3850.2308,N,09447.3427,W,2,11,1.16,327.4,M,-30.0,M,,*43
$GPGSA,A,3,22,17,14,24,19,02,,,,,,,1.44,1.16,0.85*07
$GLGSA,A,3,81,88,79,80,82,,,,,,,,1.44,1.16,0.85*11
$GNRMC,020715.000,A,3850.2308,N,09447.3427,W,0.10,180.17,261124,,,D*61
$GNVTG,180.17,T,,M,0.10,N,0.19,K,D*20
$GNGGA,020716.000,3850.2308,N,09447.3428,W,2,11,1.16,327.4,M,-30.0,M,,*4F
$GPGSA,A,3,22,17,14,24,19,02,,,,,,,1.44,1.16,0.85*07
$GLGSA,A,3,81,88,79,80,82,,,,,,,,1.44,1.16,0.85*11
$GNRMC,020716.000,A,3850.2308,N,09447.3428,W,0.14,180.17,261124,,,D*69
$GNVTG,180.17,T,,M,0.14,N,0.25,K,D*2B
$GNGGA,020717.000,3850.2308,N,09447.3428,W,2,11,1.16,327.4,M,-30.0,M,,*4E
$GPGSA,A,3,22,17,14,24,19,02,,,,,,,1.44,1.16,0.85*07
$GLGSA,A,3,81,88,79,80,82,,,,,,,,1.44,1.16,0.85*11
$GNRMC,020717.000,A,3850.2308,N,09447.3428,W,0.13,180.17,261124,,,D*6F
$GNVTG,180.17,T,,M,0.13,N,0.24,K,D*2D
$GNGGA,020718.000,3850.2308,N,09447.3428,W,2,11,1.16,327.4,M,-30.0,M,,*41
$GPGSA,A,3,22,17,14,24,19,02,,,,,,,1.44,1.16,0.85*07
$GLGSA,A,3,81,88,79,80,82,,,,,,,,1.44,1.16,0.85*11
$GPGSV,3,1,12,22,76,055,17,17,67,021,36,19,64,287,28,14,57,105,27*75
$GPGSV,3,2,12,06,45,191,,48,35,222,23,24,24,308,27,03,18,081,14*74
$GPGSV,3,3,12,30,16,172,12,02,13,041,33,11,08,205,17,13,05,234,*77
$GLGSV,2,1,07,79,82,098,26,81,73,014,27,82,52,226,27,80,37,327,28*63
$GLGSV,2,2,07,78,28,139,,88,19,035,27,83,10,217,*59
$GNRMC,020718.000,A,3850.2308,N,09447.3428,W,0.15,180.17,261124,,,D*66
$GNVTG,180.17,T,,M,0.15,N,0.28,K,D*27
$GNGGA,020719.000,3850.2308,N,09447.3428,W,2,11,1.16,327.5,M,-30.0,M,,*41
$GPGSA,A,3,22,17,14,24,19,02,,,,,,,1.44,1.16,0.85*07
$GLGSA,A,3,81,88,79,80,82,,,,,,,,1.44,1.16,0.85*11
$GNRMC,020719.000,A,3850.2308,N,09447.3428,W,0.42,180.17,261124,,,D*65
$GNVTG,180.17,T,,M,0.42,N,0.79,K,D*21
$GNGGA,020720.000,3850.2309,N,09447.3428,W,2,11,1.16,327.5,M,-30.0,M,,*4A
$GPGSA,A,3,22,17,14,24,19,02,,,,,,,1.44,1.16,0.85*07
$GLGSA,A,3,81,88,79,80,82,,,,,,,,1.44,1.16,0.85*11
$GNRMC,020720.000,A,3850.2309,N,09447.3428,W,0.32,180.17,261124,,,D*69
$GNVTG,180.17,T,,M,0.32,N,0.58,K,D*25
$GNGGA,020721.000,3850.2309,N,09447.3428,W,2,11,1.16,327.5,M,-30.0,M,,*4B
$GPGSA,A,3,22,17,14,24,19,02,,,,,,,1.44,1.16,0.85*07
$GLGSA,A,3,81,88,79,80,82,,,,,,,,1.44,1.16,0.85*11
$GNRMC,020721.000,A,3850.2309,N,09447.3428,W,0.14,180.17,261124,,,D*6C
$GNVTG,180.17,T,,M,0.14,N,0.26,K,D*28
$GNGGA,020722.000,3850.2309,N,09447.3427,W,2,11,1.16,327.5,M,-30.0,M,,*47
$GPGSA,A,3,22,17,14,24,19,02,,,,,,,1.44,1.16,0.85*07
$GLGSA,A,3,81,88,79,80,82,,,,,,,,1.44,1.16,0.85*11
$GNRMC,020722.000,A,3850.2309,N,09447.3427,W,0.08,180.17,261124,,,D*6D
$GNVTG,180.17,T,,M,0.08,N,0.15,K,D*25
$GNGGA,020723.000,3850.2309,N,09447.3428,W,2,11,1.16,327.5,M,-30.0,M,,*49
$GPGSA,A,3,22,17,14,24,19,02,,,,,,,1.44,1.16,0.85*07
$GLGSA,A,3,81,88,79,80,82,,,,,,,,1.44,1.16,0.85*11
$GPGSV,3,1,12,22,76,059,15,17,67,021,36,19,64,287,28,14,57,105,26*7A
$GPGSV,3,2,12,06,45,191,,48,35,222,22,24,25,307,26,03,18,081,13*7D
$GPGSV,3,3,12,30,16,172,11,02,13,041,33,11,08,205,17,13,05,234,*74
$GLGSV,2,1,07,79,82,098,27,81,73,014,26,82,52,226,28,80,37,327,28*6C
$GLGSV,2,2,07,78,28,139,,88,19,035,27,83,10,217,*59
$GNRMC,020723.000,A,3850.2309,N,09447.3428,W,0.36,180.17,261124,,,D*6E
$GNVTG,180.17,T,,M,0.36,N,0.67,K,D*2D
$GNGGA,020724.000,3850.2309,N,09447.3428,W,2,11,1.16,327.5,M,-30.0,M,,*4E
$GPGSA,A,3,22,17,14,24,19,02,,,,,,,1.44,1.16,0.85*07
$GLGSA,A,3,81,88,79,80,82,,,,,,,,1.44,1.16,0.85*11
$GNRMC,020724.000,A,3850.2309,N,09447.3428,W,0.06,180.17,261124,,,D*6A
$GNVTG,180.17,T,,M,0.06,N,0.11,K,D*2F
$GNGGA,020725.000,3850.2309,N,09447.3428,W,2,11,1.16,327.5,M,-30.0,M,,*4F
$GPGSA,A,3,22,17,14,24,19,02,,,,,,,1.44,1.16,0.85*07
$GLGSA,A,3,81,88,79,80,82,,,,,,,,1.44,1.16,0.85*11
$GNRMC,020725.000,A,3850.2309,N,09447.3428,W,0.40,180.17,261124,,,D*69
$GNVTG,180.17,T,,M,0.40,N,0.75,K,D*2F
$GNGGA,020726.000,3850.2310,N,09447.3429,W,2,11,1.16,327.5,M,-30.0,M,,*45
$GPGSA,A,3,22,17,14,24,19,02,,,,,,,1.44,1.16,0.85*07
$GLGSA,A,3,81,88,79,80,82,,,,,,,,1.44,1.16,0.85*11
$GNRMC,020726.000,A,3850.2310,N,09447.3429,W,0.39,180.17,261124,,,D*6D
$GNVTG,180.17,T,,M,0.39,N,0.72,K,D*26
$GNGGA,020727.000,3850.2311,N,09447.3430,W,2,11,1.16,327.5,M,-30.0,M,,*4D
$GPGSA,A,3,22,17,14,24,19,02,,,,,,,1.44,1.16,0.85*07
$GLGSA,A,3,81,88,79,80,82,,,,,,,,1.44,1.16,0.85*11
$GNRMC,020727.000,A,3850.2311,N,09447.3430,W,0.44,180.17,261124,,,D*6F
$GNVTG,180.17,T,,M,0.44,N,0.81,K,D*20
$GNGGA,020728.000,3850.2312,N,09447.3431,W,2,11,1.16,327.5,M,-30.0,M,,*40
$GPGSA,A,3,22,17,14,24,19,02,,,,,,,1.44,1.16,0.85*07
$GLGSA,A,3,81,88,79,80,82,,,,,,,,1.44,1.16,0.85*11
$GPGSV,3,1,12,22,76,059,15,17,67,021,36,19,64,287,28,14,57,105,25*79
$GPGSV,3,2,12,06,45,191,,48,35,222,23,24,25,307,26,03,18,081,*7E
$GPGSV,3,3,12,30,15,172,,02,13,041,34,11,08,205,17,13,05,234,*70
$GLGSV,2,1,07,79,82,098,27,81,73,014,26,82,52,226,28,80,37,327,30*65
$GLGSV,2,2,07,78,28,139,,88,19,035,27,83,10,217,*59
$GNRMC,020728.000,A,3850.2312,N,09447.3431,W,0.49,180.17,261124,,,D*6F
$GNVTG,180.17,T,,M,0.49,N,0.91,K,D*2C
$GNGGA,020729.000,3850.2312,N,09447.3431,W,2,11,1.16,327.5,M,-30.0,M,,*41
$GPGSA,A,3,22,17,14,24,19,02,,,,,,,1.44,1.16,0.85*07
$GLGSA,A,3,81,88,79,80,82,,,,,,,,1.44,1.16,0.85*11
$GNRMC,020729.000,A,3850.2312,N,09447.3431,W,0.82,352.88,261124,,,D*62
$GNVTG,352.88,T,,M,0.82,N,1.51,K,D*2D
$GNGGA,020730.000,3850.2313,N,09447.3432,W,2,11,1.16,327.6,M,-30.0,M,,*48
$GPGSA,A,3,22,17,14,24,19,02,,,,,,,1.44,1.16,0.85*07
$GLGSA,A,3,81,88,79,80,82,,,,,,,,1.44,1.16,0.85*11
$GNRMC,020730.000,A,3850.2313,N,09447.3432,W,0.31,352.88,261124,,,D*60
$GNVTG,352.88,T,,M,0.31,N,0.58,K,D*2D
$GNGGA,020731.000,3850.2314,N,09447.3431,W,2,11,1.16,327.6,M,-30.0,M,,*4D
$GPGSA,A,3,22,17,14,24,19,02,,,,,,,1.44,1.16,0.85*07
$GLGSA,A,3,81,88,79,80,82,,,,,,,,1.44,1.16,0.85*11
$GNRMC,020731.000,A,3850.2314,N,09447.3431,W,0.22,352.88,261124,,,D*67
$GNVTG,352.88,T,,M,0.22,N,0.41,K,D*27
$GNGGA,020732.000,3850.2314,N,09447.3431,W,2,11,1.16,327.6,M,-30.0,M,,*4E
$GPGSA,A,3,22,17,14,24,19,02,,,,,,,1.44,1.16,0.85*07
$GLGSA,A,3,81,88,79,80,82,,,,,,,,1.44,1.16,0.85*11
$GNRMC,020732.000,A,3850.2314,N,09447.3431,W,0.18,352.88,261124,,,D*6D
$GNVTG,352.88,T,,M,0.18,N,0.34,K,D*2C
$GNGGA,020733.000,3850.2314,N,09447.3432,W,2,11,1.16,327.6,M,-30.0,M,,*4C
$GPGSA,A,3,22,17,14,24,19,02,,,,,,,1.44,1.16,0.85*07
$GLGSA,A,3,81,88,79,80,82,,,,,,,,1.44,1.16,0.85*11
$GPGSV,3,1,12,22,76,059,16,17,67,021,36,19,64,287,28,14,57,105,25*7A
$GPGSV,3,2,12,06,45,191,,48,35,222,23,24,25,307,26,03,18,081,*7E
$GPGSV,3,3,12,30,15,172,,02,13,041,33,11,08,205,16,13,05,234,*76
$GLGSV,2,1,07,79,82,098,29,81,73,014,26,82,52,226,28,80,37,327,30*6B
$GLGSV,2,2,07,78,28,139,,88,19,035,28,83,10,217,*56
$GNRMC,020733.000,A,3850.2314,N,09447.3432,W,0.21,352.88,261124,,,D*65
$GNVTG,352.88,T,,M,0.21,N,0.38,K,D*2A
$GNGGA,020734.000,3850.2313,N,09447.3433,W,2,11,1.16,327.6,M,-30.0,M,,*4D
$GPGSA,A,3,22,17,14,24,19,02,,,,,,,1.44,1.16,0.85*07
$GLGSA,A,3,81,88,79,80,82,,,,,,,,1.44,1.16,0.85*11
$GNRMC,020734.000,A,3850.2313,N,09447.3433,W,0.25,352.88,261124,,,D*60
$GNVTG,352.88,T,,M,0.25,N,0.47,K,D*26
$GNGGA,020735.000,3850.2312,N,09447.3433,W,2,12,0.99,327.5,M,-30.0,M,,*4B
$GPGSA,A,3,22,17,14,06,24,19,02,,,,,,1.28,0.99,0.80*08
$GLGSA,A,3,81,88,79,80,82,,,,,,,,1.28,0.99,0.80*18
$GNRMC,020735.000,A,3850.2312,N,09447.3433,W,0.00,352.88,261124,,,D*67
$GNVTG,352.88,T,,M,0.00,N,0.01,K,D*23
$GNGGA,020736.000,3850.2312,N,09447.3433,W,2,12,0.99,327.6,M,-30.0,M,,*4B
$GPGSA,A,3,22,17,14,06,24,19,02,,,,,,1.28,0.99,0.80*08
$GLGSA,A,3,81,88,79,80,82,,,,,,,,1.28,0.99,0.80*18
$GNRMC,020736.000,A,3850.2312,N,09447.3433,W,0.28,352.88,261124,,,D*6E
$GNVTG,352.88,T,,M,0.28,N,0.52,K,D*2F
$GNGGA,020737.000,3850.2312,N,09447.3431,W,2,12,0.99,327.6,M,-30.0,M,,*48
$GPGSA,A,3,22,17,14,06,24,19,02,,,,,,1.28,0.99,0.80*08
$GLGSA,A,3,81,88,79,80,82,,,,,,,,1.28,0.99,0.80*18
$GNRMC,020737.000,A,3850.2312,N,09447.3431,W,0.45,352.88,261124,,,D*66
$GNVTG,352.88,T,,M,0.45,N,0.83,K,D*28
$GNGGA,020738.000,3850.2311,N,09447.3430,W,2,12,0.99,327.5,M,-30.0,M,,*46
$GPGSA,A,3,22,17,14,06,24,19,02,,,,,,1.28,0.99,0.80*08
$GLGSA,A,3,81,88,79,80,82,,,,,,,,1.28,0.99,0.80*18
$GPGSV,3,1,12,22,76,059,17,17,67,021,36,19,64,287,28,14,57,105,25*7B
$GPGSV,3,2,12,06,45,191,17,48,35,222,21,24,25,307,26,03,18,081,*7A
$GPGSV,3,3,12,30,15,172,,02,13,041,33,11,08,205,16,13,05,234,*76
$GLGSV,2,1,07,79,82,098,29,81,73,014,26,82,52,226,28,80,37,327,31*6A
$GLGSV,2,2,07,78,28,139,,88,19,035,28,83,10,217,*56
$GNRMC,020738.000,A,3850.2311,N,09447.3430,W,0.28,352.88,261124,,,D*60
$GNVTG,352.88,T,,M,0.28,N,0.52,K,D*2F
$GNGGA,020739.000,3850.2312,N,09447.3430,W,2,12,0.99,327.6,M,-30.0,M,,*47
$GPGSA,A,3,22,17,14,06,24,19,02,,,,,,1.28,0.99,0.80*08
$GLGSA,A,3,81,88,79,80,82,,,,,,,,1.28,0.99,0.80*18
$GNRMC,020739.000,A,3850.2312,N,09447.3430,W,0.40,352.88,261124,,,D*6C
$GNVTG,352.88,T,,M,0.40,N,0.74,K,D*25
$GNGGA,020740.000,3850.2312,N,09447.3431,W,2,12,0.99,327.5,M,-30.0,M,,*4B
$GPGSA,A,3,22,17,14,06,24,19,02,,,,,,1.28,0.99,0.80*08
$GLGSA,A,3,81,88,79,80,82,,,,,,,,1.28,0.99,0.80*18
$GNRMC,020740.000,A,3850.2312,N,09447.3431,W,0.50,352.88,261124,,,D*62
$GNVTG,352.88,T,,M,0.50,N,0.92,K,D*2C
$GNGGA,020741.000,3850.2311,N,09447.3431,W,2,12,0.99,327.5,M,-30.0,M,,*49
$GPGSA,A,3,22,17,14,06,24,19,02,,,,,,1.28,0.99,0.80*08
$GLGSA,A,3,81,88,79,80,82,,,,,,,,1.28,0.99,0.80*18
$GNRMC,020741.000,A,3850.2311,N,09447.3431,W,0.33,352.88,261124,,,D*65
$GNVTG,352.88,T,,M,0.33,N,0.61,K,D*25
$GNGGA,020742.000,3850.2311,N,09447.3431,W,2,12,0.99,327.5,M,-30.0,M,,*4A
$GPGSA,A,3,22,17,14,06,24,19,02,,,,,,1.28,0.99,0.80*08
$GLGSA,A,3,81,88,79,80,82,,,,,,,,1.28,0.99,0.80*18
$GNRMC,020742.000,A,3850.2311,N,09447.3431,W,0.22,352.88,261124,,,D*66
$GNVTG,352.88,T,,M,0.22,N,0.40,K,D*26
$GNGGA,020743.000,3850.2311,N,09447.3432,W,2,12,0.99,327.5,M,-30.0,M,,*48
$GPGSA,A,3,22,17,14,06,24,19,02,,,,,,1.28,0.99,0.80*08
$GLGSA,A,3,81,88,79,80,82,,,,,,,,1.28,0.99,0.80*18
$GPGSV,3,1,12,22,76,059,17,17,67,021,36,19,64,287,28,14,57,105,26*78
$GPGSV,3,2,12,06,45,191,18,48,35,222,,24,25,307,26,03,18,081,*76
$GPGSV,3,3,12,30,15,172,,02,13,041,33,11,08,205,17,13,05,234,*77
$GLGSV,2,1,07,79,82,098,29,81,73,014,26,82,52,226,28,80,37,327,31*6A
$GLGSV,2,2,07,78,28,139,,88,19,035,28,83,10,217,*56
$GNRMC,020743.000,A,3850.2311,N,09447.3432,W,0.07,352.88,261124,,,D*63
$GNVTG,352.88,T,,M,0.07,N,0.14,K,D*20
$GNGGA,020744.000,3850.2310,N,09447.3432,W,2,12,0.99,327.4,M,-30.0,M,,*4F
$GPGSA,A,3,22,17,14,06,24,19,02,,,,,,1.28,0.99,0.80*08
$GLGSA,A,3,81,88,79,80,82,,,,,,,,1.28,0.99,0.80*18
$GNRMC,020744.000,A,3850.2310,N,09447.3432,W,0.46,352.88,261124,,,D*60
$GNVTG,352.88,T,,M,0.46,N,0.85,K,D*2D
$GNGGA,020745.000,3850.2311,N,09447.3432,W,2,12,0.99,327.5,M,-30.0,M,,*4E
$GPGSA,A,3,22,17,14,06,24,19,02,,,,,,1.28,0.99,0.80*08
$GLGSA,A,3,81,88,79,80,82,,,,,,,,1.28,0.99,0.80*18
$GNRMC,020745.000,A,3850.2311,N,09447.3432,W,0.37,352.88,261124,,,D*66
$GNVTG,352.88,T,,M,0.37,N,0.69,K,D*29
$GNGGA,020746.000,3850.2311,N,09447.3433,W,2,12,0.99,327.5,M,-30.0,M,,*4C
$GPGSA,A,3,22,17,14,06,24,19,02,,,,,,1.28,0.99,0.80*08
$GLGSA,A,3,81,88,79,80,82,,,,,,,,1.28,0.99,0.80*18
$GNRMC,020746.000,A,3850.2311,N,09447.3433,W,0.51,352.88,261124,,,D*64
$GNVTG,352.88,T,,M,0.51,N,0.95,K,D*2A
$GNGGA,020747.000,3850.2311,N,09447.3433,W,2,12,0.99,327.6,M,-30.0,M,,*4E
$GPGSA,A,3,22,17,14,06,24,19,02,,,,,,1.28,0.99,0.80*08
$GLGSA,A,3,81,88,79,80,82,,,,,,,,1.28,0.99,0.80*18
$GNRMC,020747.000,A,3850.2311,N,09447.3433,W,0.17,352.88,261124,,,D*67
$GNVTG,352.88,T,,M,0.17,N,0.32,K,D*25
$GNGGA,020748.000,3850.2310,N,09447.3432,W,2,12,0.99,327.6,M,-30.0,M,,*41
$GPGSA,A,3,22,17,14,06,24,19,02,,,,,,1.28,0.99,0.80*08
$GLGSA,A,3,81,88,79,80,82,,,,,,,,1.28,0.99,0.80*18
$GPGSV,3,1,12,22,76,059,17,17,67,021,36,19,64,287,28,14,57,105,27*79
$GPGSV,3,2,12,06,45,191,18,48,35,222,,24,25,307,26,03,18,081,*76
$GPGSV,3,3,12,30,15,172,,02,13,041,34,11,08,205,17,13,05,234,*70
$GLGSV,2,1,07,79,82,098,30,81,73,014,26,82,52,226,26,80,37,327,31*6C
$GLGSV,2,2,07,78,28,139,,88,19,035,28,83,10,217,*56
$GNRMC,020748.000,A,3850.2310,N,09447.3432,W,0.21,352.88,261124,,,D*6D
$GNVTG,352.88,T,,M,0.21,N,0.39,K,D*2B
$GNGGA,020749.000,3850.2309,N,09447.3431,W,2,13,0.87,327.6,M,-30.0,M,,*45
$GPGSA,A,3,22,30,17,14,06,24,19,02,,,,,1.12,0.87,0.72*00
$GLGSA,A,3,81,88,79,80,82,,,,,,,,1.12,0.87,0.72*13
$GNRMC,020749.000,A,3850.2309,N,09447.3431,W,0.44,352.88,261124,,,D*64
$GNVTG,352.88,T,,M,0.44,N,0.82,K,D*28
$GNGGA,020750.000,3850.2308,N,09447.3431,W,2,13,0.87,327.6,M,-30.0,M,,*4C
$GPGSA,A,3,22,30,17,14,06,24,19,02,,,,,1.12,0.87,0.71*03
$GLGSA,A,3,81,88,79,80,82,,,,,,,,1.12,0.87,0.71*10
$GNRMC,020750.000,A,3850.2308,N,09447.3431,W,0.36,352.88,261124,,,D*68
$GNVTG,352.88,T,,M,0.36,N,0.68,K,D*29
$GNGGA,020751.000,3850.2309,N,09447.3433,W,2,13,0.87,327.6,M,-30.0,M,,*4E
$GPGSA,A,3,22,30,17,14,06,24,19,02,,,,,1.12,0.87,0.72*00
$GLGSA,A,3,81,88,79,80,82,,,,,,,,1.12,0.87,0.72*13
$GNRMC,020751.000,A,3850.2309,N,09447.3433,W,0.48,352.88,261124,,,D*63
$GNVTG,352.88,T,,M,0.48,N,0.88,K,D*2E
$GNGGA,020752.000,3850.2309,N,09447.3433,W,2,13,0.87,327.6,M,-30.0,M,,*4D
$GPGSA,A,3,22,30,17,14,06,24,19,02,,,,,1.12,0.87,0.72*00
$GLGSA,A,3,81,88,79,80,82,,,,,,,,1.12,0.87,0.72*13
$GNRMC,020752.000,A,3850.2309,N,09447.3433,W,0.35,352.88,261124,,,D*6A
$GNVTG,352.88,T,,M,0.35,N,0.65,K,D*27
$GNGGA,020753.000,3850.2310,N,09447.3433,W,2,13,0.87,327.6,M,-30.0,M,,*44
$GPGSA,A,3,22,30,17,14,06,24,19,02,,,,,1.12,0.87,0.71*03
$GLGSA,A,3,81,88,79,80,82,,,,,,,,1.12,0.87,0.71*10
$GPGSV,3,1,12,22,76,059,15,17,67,021,36,19,64,287,29,14,57,105,27*7A
$GPGSV,3,2,12,06,45,191,18,48,35,222,,24,25,307,27,03,18,081,*77
$GPGSV,3,3,12,30,15,172,15,02,13,041,33,11,08,205,17,13,05,234,*73
$GLGSV,2,1,07,79,82,098,29,81,73,014,27,82,52,226,26,80,37,327,31*65
$GLGSV,2,2,07,78,28,139,,88,19,035,27,83,10,217,*59
$GNRMC,020753.000,A,3850.2310,N,09447.3433,W,0.24,352.88,261124,,,D*63
$GNVTG,352.88,T,,M,0.24,N,0.44,K,D*24
$GNGGA,020754.000,3850.2309,N,09447.3434,W,2,13,0.87,327.6,M,-30.0,M,,*4C
$GPGSA,A,3,22,30,17,14,06,24,19,02,,,,,1.12,0.87,0.71*03
$GLGSA,A,3,81,88,79,80,82,,,,,,,,1.12,0.87,0.71*10
$GNRMC,020754.000,A,3850.2309,N,09447.3434,W,0.49,352.88,261124,,,D*60
$GNVTG,352.88,T,,M,0.49,N,0.91,K,D*27
$GNGGA,020755.000,3850.2309,N,09447.3434,W,2,13,0.87,327.6,M,-30.0,M,,*4D
$GPGSA,A,3,22,30,17,14,06,24,19,02,,,,,1.12,0.87,0.72*00
$GLGSA,A,3,81,88,79,80,82,,,,,,,,1.12,0.87,0.72*13
$GNRMC,020755.000,A,3850.2309,N,09447.3434,W,0.30,352.88,261124,,,D*6F
$GNVTG,352.88,T,,M,0.30,N,0.56,K,D*22
$GNGGA,020756.000,3850.2309,N,09447.3434,W,2,13,0.87,327.5,M,-30.0,M,,*4D
$GPGSA,A,3,22,30,17,14,06,24,19,02,,,,,1.12,0.87,0.71*03
$GLGSA,A,3,81,88,79,80,82,,,,,,,,1.12,0.87,0.71*10
$GNRMC,020756.000,A,3850.2309,N,09447.3434,W,0.41,352.88,261124,,,D*6A
$GNVTG,352.88,T,,M,0.41,N,0.76,K,D*26
$GNGGA,020757.000,3850.2308,N,09447.3434,W,2,13,0.87,327.4,M,-30.0,M,,*4C
$GPGSA,A,3,22,30,17,14,06,24,19,02,,,,,1.12,0.87,0.71*03
$GLGSA,A,3,81,88,79,80,82,,,,,,,,1.12,0.87,0.71*10
$GNRMC,020757.000,A,3850.2308,N,09447.3434,W,0.40,352.88,261124,,,D*6B
$GNVTG,352.88,T,,M,0.40,N,0.73,K,D*22
$GNGGA,020758.000,3850.2308,N,09447.3434,W,2,13,0.87,327.4,M,-30.0,M,,*43
$GPGSA,A,3,22,30,17,14,06,24,19,02,,,,,1.12,0.87,0.71*03
$GLGSA,A,3,81,88,79,80,82,,,,,,,,1.12,0.87,0.71*10
$GPGSV,3,1,12,22,76,059,16,17,67,021,37,19,64,287,29,14,57,105,27*78
$GPGSV,3,2,12,06,45,191,17,24,25,307,27,03,18,081,,30,15,172,15*77
$GPGSV,3,3,12,02,13,041,33,11,08,205,16,13,05,234,,34,,,*42
$GLGSV,2,1,07,79,82,098,29,81,73,014,27,82,52,226,28,80,37,327,31*6B
$GLGSV,2,2,07,78,28,139,,88,19,035,27,83,10,217,*59
$GNRMC,020758.000,A,3850.2308,N,09447.3434,W,0.06,352.88,261124,,,D*66
$GNVTG,352.88,T,,M,0.06,N,0.12,K,D*27
$GNGGA,020759.000,3850.2308,N,09447.3435,W,2,13,0.87,327.4,M,-30.0,M,,*43
$GPGSA,A,3,22,30,17,14,06,24,19,02,,,,,1.12,0.87,0.71*03
$GLGSA,A,3,81,88,79,80,82,,,,,,,,1.12,0.87,0.71*10
$GNRMC,020759.000,A,3850.2308,N,09447.3435,W,0.14,352.88,261124,,,D*65
$GNVTG,352.88,T,,M,0.14,N,0.26,K,D*23
$GNGGA,020800.000,3850.2308,N,09447.3434,W,2,13,0.87,327.4,M,-30.0,M,,*41
$GPGSA,A,3,22,30,17,14,06,24,19,02,,,,,1.12,0.87,0.71*03
$GLGSA,A,3,81,88,79,80,82,,,,,,,,1.12,0.87,0.71*10
$GNRMC,020800.000,A,3850.2308,N,09447.3434,W,1.14,335.25,261124,,,D*60
$GNVTG,335.25,T,,M,1.14,N,2.11,K,D*22
$GNGGA,020801.000,3850.2310,N,09447.3436,W,2,13,0.87,327.5,M,-30.0,M,,*4A
$GPGSA,A,3,22,30,17,14,06,24,19,02,,,,,1.12,0.87,0.71*03
$GLGSA,A,3,81,88,79,80,82,,,,,,,,1.12,0.87,0.71*10
$GNRMC,020801.000,A,3850.2310,N,09447.3436,W,1.84,359.45,261124,,,D*6F
$GNVTG,359.45,T,,M,1.84,N,3.41,K,D*23
$GNGGA,020802.000,3850.2314,N,09447.3435,W,2,13,0.87,327.9,M,-30.0,M,,*42
$GPGSA,A,3,22,30,17,14,06,24,19,02,,,,,1.12,0.87,0.71*03
$GLGSA,A,3,81,88,79,80,82,,,,,,,,1.12,0.87,0.71*10
$GNRMC,020802.000,A,3850.2314,N,09447.3435,W,1.62,5.08,261124,,,D*60
$GNVTG,5.08,T,,M,1.62,N,3.00,K,D*2D
$GNGGA,020803.000,3850.2316,N,09447.3435,W,2,13,0.87,328.4,M,-30.0,M,,*43
$GPGSA,A,3,22,30,17,14,06,24,19,02,,,,,1.12,0.87,0.71*03
$GLGSA,A,3,81,88,79,80,82,,,,,,,,1.12,0.87,0.71*10
$GPGSV,3,1,12,22,76,059,15,17,67,021,37,19,64,287,29,14,57,105,27*7B
$GPGSV,3,2,12,06,45,191,17,24,25,307,27,03,18,081,,30,15,172,16*74
$GPGSV,3,3,12,02,13,041,33,11,08,205,16,13,05,234,,34,,,*42
$GLGSV,2,1,07,79,82,098,28,81,73,014,28,82,52,226,27,80,37,327,31*6A
$GLGSV,2,2,07,78,28,139,,88,19,035,27,83,10,217,*59
$GNRMC,020803.000,A,3850.2316,N,09447.3435,W,1.20,6.53,261124,,,D*68
$GNVTG,6.53,T,,M,1.20,N,2.23,K,D*26
$GNGGA,020804.000,3850.2318,N,09447.3434,W,2,13,0.87,328.8,M,-30.0,M,,*47
$GPGSA,A,3,22,30,17,14,06,24,19,02,,,,,1.12,0.87,0.71*03
$GLGSA,A,3,81,88,79,80,82,,,,,,,,1.12,0.87,0.71*10
$GNRMC,020804.000,A,3850.2318,N,09447.3434,W,0.71,7.49,261124,,,D*6F
$GNVTG,7.49,T,,M,0.71,N,1.32,K,D*2A
$GNGGA,020805.000,3850.2319,N,09447.3433,W,2,14,0.81,329.3,M,-30.0,M,,*4B
$GPGSA,A,3,22,30,17,14,06,24,19,02,,,,,1.08,0.81,0.71*0E
$GLGSA,A,3,78,81,88,79,80,82,,,,,,,1.08,0.81,0.71*12
$GNRMC,020805.000,A,3850.2319,N,09447.3433,W,0.22,7.49,261124,,,D*6E
$GNVTG,7.49,T,,M,0.22,N,0.40,K,D*28
$GNGGA,020806.000,3850.2319,N,09447.3434,W,2,14,0.81,329.2,M,-30.0,M,,*4E
$GPGSA,A,3,22,30,17,14,06,24,19,02,,,,,1.08,0.81,0.71*0E
$GLGSA,A,3,78,81,88,79,80,82,,,,,,,1.08,0.81,0.71*12
$GNRMC,020806.000,A,3850.2319,N,09447.3434,W,0.24,7.49,261124,,,D*6C
$GNVTG,7.49,T,,M,0.24,N,0.45,K,D*2B
$GNGGA,020807.000,3850.2320,N,09447.3434,W,2,14,0.81,329.2,M,-30.0,M,,*45
$GPGSA,A,3,22,30,17,14,06,24,19,02,,,,,1.08,0.81,0.71*0E
$GLGSA,A,3,78,81,88,79,80,82,,,,,,,1.08,0.81,0.71*12
$GNRMC,020807.000,A,3850.2320,N,09447.3434,W,0.23,7.49,261124,,,D*60
$GNVTG,7.49,T,,M,0.23,N,0.42,K,D*2B
$GNGGA,020808.000,3850.2322,N,09447.3434,W,2,14,0.81,329.2,M,-30.0,M,,*48
$GPGSA,A,3,22,30,17,14,06,24,19,02,,,,,1.08,0.81,0.71*0E
$GLGSA,A,3,78,81,88,79,80,82,,,,,,,1.08,0.81,0.71*12
$GPGSV,3,1,12,22,76,059,15,17,67,021,37,19,64,287,29,14,57,105,26*7A
$GPGSV,3,2,12,06,45,191,18,24,25,307,27,03,18,081,16,30,15,172,16*7C
$GPGSV,3,3,12,02,13,041,33,11,08,205,16,13,05,234,,35,,,*43
$GLGSV,2,1,07,79,82,098,27,81,73,014,28,82,52,226,27,80,37,327,32*66
$GLGSV,2,2,07,78,28,139,17,88,19,035,26,83,10,217,*5E
$GNRMC,020808.000,A,3850.2322,N,09447.3434,W,0.16,7.49,261124,,,D*6B
$GNVTG,7.49,T,,M,0.16,N,0.30,K,D*28
$GNGGA,020809.000,3850.2322,N,09447.3435,W,2,14,0.81,329.2,M,-30.0,M,,*48
$GPGSA,A,3,22,30,17,14,06,24,19,02,,,,,1.08,0.81,0.71*0E
$GLGSA,A,3,78,81,88,79,80,82,,,,,,,1.08,0.81,0.71*12
$GNRMC,020809.000,A,3850.2322,N,09447.3435,W,0.22,7.49,261124,,,D*6C
$GNVTG,7.49,T,,M,0.22,N,0.41,K,D*29
$GNGGA,020810.000,3850.2323,N,09447.3435,W,2,14,0.81,329.2,M,-30.0,M,,*41
$GPGSA,A,3,22,30,17,14,06,24,19,02,,,,,1.08,0.81,0.71*0E
$GLGSA,A,3,78,81,88,79,80,82,,,,,,,1.08,0.81,0.71*12
$GNRMC,020810.000,A,3850.2323,N,09447.3435,W,0.28,7.49,261124,,,D*6F
$GNVTG,7.49,T,,M,0.28,N,0.51,K,D*22
$GNGGA,020811.000,3850.2323,N,09447.3433,W,2,14,0.81,329.2,M,-30.0,M,,*46
$GPGSA,A,3,22,30,17,14,06,24,19,02,,,,,1.08,0.81,0.71*0E
$GLGSA,A,3,78,81,88,79,80,82,,,,,,,1.08,0.81,0.71*12
$GNRMC,020811.000,A,3850.2323,N,09447.3433,W,0.33,7.49,261124,,,D*62
$GNVTG,7.49,T,,M,0.33,N,0.62,K,D*28
$GNGGA,020812.000,3850.2323,N,09447.3432,W,2,14,0.81,329.2,M,-30.0,M,,*44
$GPGSA,A,3,22,30,17,14,06,24,19,02,,,,,1.08,0.81,0.71*0E
$GLGSA,A,3,78,81,88,79,80,82,,,,,,,1.08,0.81,0.71*12
$GNRMC,020812.000,A,3850.2323,N,09447.3432,W,0.25,7.49,261124,,,D*67
$GNVTG,7.49,T,,M,0.25,N,0.46,K,D*29
$GNGGA,020813.000,3850.2323,N,09447.3433,W,2,14,0.81,329.2,M,-30.0,M,,*44
$GPGSA,A,3,22,30,17,14,06,24,19,02,,,,,1.08,0.81,0.71*0E
$GLGSA,A,3,78,81,88,79,80,82,,,,,,,1.08,0.81,0.71*12
$GPGSV,3,1,12,22,76,059,13,17,67,021,37,19,64,287,29,14,57,105,27*7D
$GPGSV,3,2,12,06,45,191,18,24,25,307,28,03,18,081,15,30,15,172,15*73
$GPGSV,3,3,12,02,13,041,33,11,08,205,15,13,05,234,,36,,,*43
$GLGSV,2,1,07,79,82,098,26,81,73,014,29,82,52,226,27,80,37,327,33*67
$GLGSV,2,2,07,78,28,139,17,88,19,035,26,83,10,217,*5E
$GNRMC,020813.000,A,3850.2323,N,09447.3433,W,0.87,7.08,261124,,,D*6A
$GNVTG,7.08,T,,M,0.87,N,1.61,K,D*20
$GNGGA,020814.000,3850.2324,N,09447.3432,W,2,13,0.82,329.3,M,-30.0,M,,*40
$GPGSA,A,3,30,17,14,06,24,19,02,,,,,,1.10,0.82,0.73*06
$GLGSA,A,3,78,81,88,79,80,82,,,,,,,1.10,0.82,0.73*1A
$GNRMC,020814.000,A,3850.2324,N,09447.3432,W,0.25,7.08,261124,,,D*63
$GNVTG,7.08,T,,M,0.25,N,0.47,K,D*2D
$GNGGA,020815.000,3850.2325,N,09447.3432,W,2,13,0.82,329.3,M,-30.0,M,,*40
$GPGSA,A,3,30,17,14,06,24,19,02,,,,,,1.10,0.82,0.73*06
$GLGSA,A,3,78,81,88,79,80,82,,,,,,,1.10,0.82,0.73*1A
$GNRMC,020815.000,A,3850.2325,N,09447.3432,W,0.52,7.08,261124,,,D*63
$GNVTG,7.08,T,,M,0.52,N,0.96,K,D*21
$GNGGA,020816.000,3850.2324,N,09447.3432,W,2,13,0.82,329.2,M,-30.0,M,,*43
$GPGSA,A,3,30,17,14,06,24,19,02,,,,,,1.10,0.82,0.73*06
$GLGSA,A,3,78,81,88,79,80,82,,,,,,,1.10,0.82,0.73*1A
$GNRMC,020816.000,A,3850.2324,N,09447.3432,W,0.30,7.08,261124,,,D*65
$GNVTG,7.08,T,,M,0.30,N,0.55,K,D*2A
$GNGGA,020817.000,3850.2323,N,09447.3433,W,2,13,0.82,329.1,M,-30.0,M,,*47
$GPGSA,A,3,30,17,14,06,24,19,02,,,,,,1.10,0.82,0.73*06
$GLGSA,A,3,78,81,88,79,80,82,,,,,,,1.10,0.82,0.73*1A
$GNRMC,020817.000,A,3850.2323,N,09447.3433,W,0.31,7.08,261124,,,D*63
$GNVTG,7.08,T,,M,0.31,N,0.57,K,D*29
$GNGGA,020818.000,3850.2323,N,09447.3432,W,2,13,0.82,329.1,M,-30.0,M,,*49
$GPGSA,A,3,30,17,14,06,24,19,02,,,,,,1.10,0.82,0.73*06
$GLGSA,A,3,78,81,88,79,80,82,,,,,,,1.10,0.82,0.73*1A
$GPGSV,3,1,12,22,76,059,,17,67,021,37,19,64,287,30,14,57,105,29*79
$GPGSV,3,2,12,06,45,191,19,24,25,307,28,03,18,081,16,30,15,172,16*72
$GPGSV,3,3,12,02,13,041,33,11,08,205,13,13,05,234,,38,,,*4B
$GLGSV,2,1,07,79,81,106,27,81,73,014,29,82,52,226,27,80,38,328,33*63
$GLGSV,2,2,07,78,27,139,17,88,19,035,24,83,10,217,*53
$GNRMC,020818.000,A,3850.2323,N,09447.3432,W,0.02,7.08,261124,,,D*6D
$GNVTG,7.08,T,,M,0.02,N,0.04,K,D*2F
$GNGGA,020819.000,3850.2324,N,09447.3432,W,2,13,0.82,329.1,M,-30.0,M,,*4F
$GPGSA,A,3,30,17,14,06,24,19,02,,,,,,1.10,0.82,0.73*06
$GLGSA,A,3,78,81,88,79,80,82,,,,,,,1.10,0.82,0.73*1A
$GNRMC,020819.000,A,3850.2324,N,09447.3432,W,0.48,7.08,261124,,,D*65
$GNVTG,7.08,T,,M,0.48,N,0.89,K,D*24
$GNGGA,020820.000,3850.2326,N,09447.3432,W,2,13,0.82,329.2,M,-30.0,M,,*44
$GPGSA,A,3,30,17,14,06,24,19,02,,,,,,1.10,0.82,0.73*06
$GLGSA,A,3,78,81,88,79,80,82,,,,,,,1.10,0.82,0.73*1A
$GNRMC,020820.000,A,3850.2326,N,09447.3432,W,0.30,7.08,261124,,,D*62
$GNVTG,7.08,T,,M,0.30,N,0.55,K,D*2A
$GNGGA,020821.000,3850.2327,N,09447.3432,W,2,13,0.82,329.1,M,-30.0,M,,*47
$GPGSA,A,3,30,17,14,06,24,19,02,,,,,,1.10,0.82,0.73*06
$GLGSA,A,3,78,81,88,79,80,82,,,,,,,1.10,0.82,0.73*1A
$GNRMC,020821.000,A,3850.2327,N,09447.3432,W,0.53,7.08,261124,,,D*67
$GNVTG,7.08,T,,M,0.53,N,0.99,K,D*2F
$GNGGA,020822.000,3850.2326,N,09447.3432,W,2,12,0.88,329.1,M,-30.0,M,,*4E
$GPGSA,A,3,17,14,06,24,19,02,,,,,,,1.18,0.88,0.79*0D
$GLGSA,A,3,78,81,88,79,80,82,,,,,,,1.18,0.88,0.79*12
$GNRMC,020822.000,A,3850.2326,N,09447.3432,W,0.52,7.08,261124,,,D*64
$GNVTG,7.08,T,,M,0.52,N,0.96,K,D*21
$GNGGA,020823.000,3850.2325,N,09447.3432,W,2,12,0.88,329.1,M,-30.0,M,,*4C
$GPGSA,A,3,17,14,06,24,19,02,,,,,,,1.18,0.88,0.79*0D
$GLGSA,A,3,78,81,88,79,80,82,,,,,,,1.18,0.88,0.79*12
$GPGSV,3,1,12,22,76,059,,17,67,021,37,19,64,287,30,14,57,105,29*79
$GPGSV,3,2,12,06,45,191,20,24,25,307,28,03,18,081,15,30,15,172,16*7B
$GPGSV,3,3,12,02,13,041,32,11,08,205,,13,05,234,,38,,,*48
$GLGSV,2,1,07,79,81,106,27,81,72,015,29,82,52,227,26,80,38,328,33*63
$GLGSV,2,2,07,78,27,139,16,88,19,035,24,83,11,218,*5C
$GNRMC,020823.000,A,3850.2325,N,09447.3432,W,0.17,7.08,261124,,,D*67
$GNVTG,7.08,T,,M,0.17,N,0.31,K,D*2D
$GNGGA,020824.000,3850.2325,N,09447.3432,W,2,12,0.88,329.1,M,-30.0,M,,*4B
$GPGSA,A,3,17,14,06,24,19,02,,,,,,,1.18,0.88,0.79*0D
$GLGSA,A,3,78,81,88,79,80,82,,,,,,,1.18,0.88,0.79*12
$GNRMC,020824.000,A,3850.2325,N,09447.3432,W,0.24,7.08,261124,,,D*60
$GNVTG,7.08,T,,M,0.24,N,0.45,K,D*2E
$GNGGA,020825.000,3850.2325,N,09447.3432,W,2,13,0.82,329.1,M,-30.0,M,,*41
$GPGSA,A,3,30,17,14,06,24,19,02,,,,,,1.10,0.82,0.73*06
$GLGSA,A,3,78,81,88,79,80,82,,,,,,,1.10,0.82,0.73*1A
$GNRMC,020825.000,A,3850.2325,N,09447.3432,W,0.56,7.08,261124,,,D*64
$GNVTG,7.08,T,,M,0.56,N,1.03,K,D*28
$GNGGA,020826.000,3850.2325,N,09447.3431,W,2,13,0.82,329.0,M,-30.0,M,,*40
$GPGSA,A,3,30,17,14,06,24,19,02,,,,,,1.10,0.82,0.73*06
$GLGSA,A,3,78,81,88,79,80,82,,,,,,,1.10,0.82,0.73*1A
$GNRMC,020826.000,A,3850.2325,N,09447.3431,W,0.50,7.08,261124,,,D*62
$GNVTG,7.08,T,,M,0.50,N,0.92,K,D*27
$GNGGA,020827.000,3850.2325,N,09447.3431,W,2,13,0.82,329.1,M,-30.0,M,,*40
$GPGSA,A,3,30,17,14,06,24,19,02,,,,,,1.10,0.82,0.73*06
$GLGSA,A,3,78,81,88,79,80,82,,,,,,,1.10,0.82,0.73*1A
$GNRMC,020827.000,A,3850.2325,N,09447.3431,W,0.01,7.08,261124,,,D*67
$GNVTG,7.08,T,,M,0.01,N,0.02,K,D*2A
$GNGGA,020828.000,3850.2326,N,09447.3431,W,2,13,0.82,329.2,M,-30.0,M,,*4F
$GPGSA,A,3,30,17,14,06,24,19,02,,,,,,1.10,0.82,0.73*06
$GLGSA,A,3,78,81,88,79,80,82,,,,,,,1.10,0.82,0.73*1A
$GPGSV,3,1,12,22,76,059,,17,67,021,37,19,64,287,30,14,57,105,29*79
$GPGSV,3,2,12,06,45,191,22,24,25,307,28,03,18,081,17,30,15,172,16*7B
$GPGSV,3,3,12,02,13,041,32,11,08,205,17,13,05,234,,41,,,*40
$GLGSV,2,1,07,79,81,106,26,81,72,015,29,82,52,227,27,80,38,328,34*64
$GLGSV,2,2,07,78,27,139,15,88,18,035,24,83,11,218,*5E
$GNRMC,020828.000,A,3850.2326,N,09447.3431,W,0.47,7.08,261124,,,D*69
$GNVTG,7.08,T,,M,0.47,N,0.86,K,D*24
$GNGGA,020829.000,3850.2324,N,09447.3432,W,2,13,0.82,329.1,M,-30.0,M,,*4C
$GPGSA,A,3,30,17,14,06,24,19,02,,,,,,1.10,0.82,0.73*06
$GLGSA,A,3,78,81,88,79,80,82,,,,,,,1.10,0.82,0.73*1A
$GNRMC,020829.000,A,3850.2324,N,09447.3432,W,0.39,7.08,261124,,,D*60
$GNVTG,7.08,T,,M,0.39,N,0.72,K,D*26
$GNGGA,020830.000,3850.2325,N,09447.3431,W,2,13,0.82,329.0,M,-30.0,M,,*47
$GPGSA,A,3,30,17,14,06,24,19,02,,,,,,1.10,0.82,0.73*06
$GLGSA,A,3,78,81,88,79,80,82,,,,,,,1.10,0.82,0.73*1A
$GNRMC,020830.000,A,3850.2325,N,09447.3431,W,0.24,7.08,261124,,,D*66
$GNVTG,7.08,T,,M,0.24,N,0.44,K,D*2F
$GNGGA,020831.000,3850.2325,N,09447.3431,W,2,13,0.82,329.0,M,-30.0,M,,*46
$GPGSA,A,3,30,17,14,06,24,19,02,,,,,,1.10,0.82,0.73*06
$GLGSA,A,3,78,81,88,79,80,82,,,,,,,1.10,0.82,0.73*1A
$GNRMC,020831.000,A,3850.2325,N,09447.3431,W,0.17,7.08,261124,,,D*67
$GNVTG,7.08,T,,M,0.17,N,0.31,K,D*2D
$GNGGA,020832.000,3850.2326,N,09447.3431,W,2,13,0.82,329.0,M,-30.0,M,,*46
$GPGSA,A,3,30,17,14,06,24,19,02,,,,,,1.09,0.82,0.73*0E
$GLGSA,A,3,78,81,88,79,80,82,,,,,,,1.09,0.82,0.73*12
$GNRMC,020832.000,A,3850.2326,N,09447.3431,W,0.28,7.08,261124,,,D*6B
$GNVTG,7.08,T,,M,0.28,N,0.52,K,D*24
$GNGGA,020833.000,3850.2326,N,09447.3430,W,2,13,0.82,329.1,M,-30.0,M,,*47
$GPGSA,A,3,30,17,14,06,24,19,02,,,,,,1.10,0.82,0.73*06
$GLGSA,A,3,78,81,88,79,80,82,,,,,,,1.10,0.82,0.73*1A
$GPGSV,3,1,12,22,76,059,,17,67,021,37,19,64,287,30,14,57,105,29*79
$GPGSV,3,2,12,06,45,191,22,24,25,307,28,03,18,081,16,30,15,172,15*79
$GPGSV,3,3,12,02,13,041,32,11,08,205,17,13,05,234,,43,,,*42
$GLGSV,2,1,07,79,81,106,26,81,72,015,29,82,52,227,27,80,38,328,34*64
$GLGSV,2,2,07,78,27,139,13,88,18,035,24,83,11,218,*58
$GNRMC,020833.000,A,3850.2326,N,09447.3430,W,0.47,7.08,261124,,,D*62
$GNVTG,7.08,T,,M,0.47,N,0.88,K,D*2A
$GNGGA,020834.000,3850.2325,N,09447.3431,W,2,14,0.81,329.0,M,-30.0,M,,*47
$GPGSA,A,3,30,22,17,14,06,24,19,02,,,,,1.08,0.81,0.71*0E
$GLGSA,A,3,78,81,88,79,80,82,,,,,,,1.08,0.81,0.71*12
$GNRMC,020834.000,A,3850.2325,N,09447.3431,W,1.03,198.28,261124,,,D*63
$GNVTG,198.28,T,,M,1.03,N,1.92,K,D*24
$GNGGA,020835.000,3850.2323,N,09447.3432,W,2,14,0.81,328.8,M,-30.0,M,,*4A
$GPGSA,A,3,30,22,17,14,06,24,19,02,,,,,1.08,0.81,0.71*0E
$GLGSA,A,3,78,81,88,79,80,82,,,,,,,1.08,0.81,0.71*12
$GNRMC,020835.000,A,3850.2323,N,09447.3432,W,0.79,202.83,261124,,,D*6A
$GNVTG,202.83,T,,M,0.79,N,1.46,K,D*20
$GNGGA,020836.000,3850.2323,N,09447.3432,W,2,13,0.87,328.5,M,-30.0,M,,*45
$GPGSA,A,3,30,22,17,14,06,24,19,02,,,,,1.12,0.87,0.71*03
$GLGSA,A,3,81,88,79,80,82,,,,,,,,1.12,0.87,0.71*10
$GNRMC,020836.000,A,3850.2323,N,09447.3432,W,0.36,202.83,261124,,,D*62
$GNVTG,202.83,T,,M,0.36,N,0.66,K,D*28
$GNGGA,020837.000,3850.2323,N,09447.3433,W,2,13,0.87,328.5,M,-30.0,M,,*45
$GPGSA,A,3,30,22,17,14,06,24,19,02,,,,,1.12,0.87,0.71*03
$GLGSA,A,3,81,88,79,80,82,,,,,,,,1.12,0.87,0.71*10
$GNRMC,020837.000,A,3850.2323,N,09447.3433,W,0.15,202.83,261124,,,D*63
$GNVTG,202.83,T,,M,0.15,N,0.28,K,D*23
$GNGGA,020838.000,3850.2322,N,09447.3433,W,2,13,0.87,328.3,M,-30.0,M,,*4D
$GPGSA,A,3,30,22,17,14,06,24,19,02,,,,,1.12,0.87,0.71*03
$GLGSA,A,3,81,88,79,80,82,,,,,,,,1.12,0.87,0.71*10
$GPGSV,3,1,12,22,76,059,15,17,67,021,37,19,64,287,31,14,57,105,29*7C
$GPGSV,3,2,12,06,45,191,22,24,25,307,28,03,18,081,16,30,15,172,15*79
$GPGSV,3,3,12,02,13,041,31,11,08,205,18,13,05,234,,45,,,*48
$GLGSV,2,1,07,79,81,106,26,81,72,015,29,82,52,227,26,80,38,328,34*65
$GLGSV,2,2,07,78,27,139,12,88,18,035,24,83,11,218,*59
$GNRMC,020838.000,A,3850.2322,N,09447.3433,W,0.50,202.83,261124,,,D*6C
$GNVTG,202.83,T,,M,0.50,N,0.93,K,D*22
$GNGGA,020839.000,3850.2324,N,09447.3434,W,2,14,0.81,328.4,M,-30.0,M,,*4B
$GPGSA,A,3,30,22,17,14,06,24,19,02,,,,,1.08,0.81,0.71*0E
$GLGSA,A,3,78,81,88,79,80,82,,,,,,,1.08,0.81,0.71*12
$GNRMC,020839.000,A,3850.2324,N,09447.3434,W,0.39,202.83,261124,,,D*63
$GNVTG,202.83,T,,M,0.39,N,0.73,K,D*23
$GNGGA,020840.000,3850.2323,N,09447.3435,W,2,14,0.81,328.4,M,-30.0,M,,*43
$GPGSA,A,3,30,22,17,14,06,24,19,02,,,,,1.08,0.81,0.71*0E
$GLGSA,A,3,78,81,88,79,80,82,,,,,,,1.08,0.81,0.71*12
$GNRMC,020840.000,A,3850.2323,N,09447.3435,W,0.62,211.87,261124,,,D*63
$GNVTG,211.87,T,,M,0.62,N,1.16,K,D*29
$GNGGA,020841.000,3850.2321,N,09447.3435,W,2,14,0.81,328.2,M,-30.0,M,,*46
$GPGSA,A,3,30,22,17,14,06,24,19,02,,,,,1.08,0.81,0.71*0E
$GLGSA,A,3,78,81,88,79,80,82,,,,,,,1.08,0.81,0.71*12
$GNRMC,020841.000,A,3850.2321,N,09447.3435,W,0.79,198.57,261124,,,D*65
$GNVTG,198.57,T,,M,0.79,N,1.46,K,D*29
$GNGGA,020842.000,3850.2319,N,09447.3435,W,2,14,0.81,328.1,M,-30.0,M,,*4D
$GPGSA,A,3,30,22,17,14,06,24,19,02,,,,,1.08,0.81,0.71*0E
$GLGSA,A,3,78,81,88,79,80,82,,,,,,,1.08,0.81,0.71*12
$GNRMC,020842.000,A,3850.2319,N,09447.3435,W,0.63,191.53,261124,,,D*6B
$GNVTG,191.53,T,,M,0.63,N,1.17,K,D*2B
$GNGGA,020843.000,3850.2319,N,09447.3436,W,2,14,0.81,328.0,M,-30.0,M,,*4E
$GPGSA,A,3,30,22,17,14,06,24,19,02,,,,,1.08,0.81,0.71*0E
$GLGSA,A,3,78,81,88,79,80,82,,,,,,,1.08,0.81,0.71*12
$GPGSV,3,1,12,22,76,059,17,17,67,021,37,19,64,287,31,14,57,105,29*7E
$GPGSV,3,2,12,06,45,191,21,24,25,307,28,03,18,081,15,30,15,172,14*78
$GPGSV,3,3,12,02,13,041,31,11,08,205,17,13,05,234,,46,,,*44
$GLGSV,2,1,07,79,81,106,26,81,72,015,30,82,52,227,26,80,38,328,34*6D
$GLGSV,2,2,07,78,27,139,17,88,18,035,23,83,11,218,*5B
$GNRMC,020843.000,A,3850.2319,N,09447.3436,W,0.91,14.35,261124,,,D*58
$GNVTG,14.35,T,,M,0.91,N,1.68,K,D*12
$GNGGA,020844.000,3850.2319,N,09447.3435,W,2,14,0.81,328.1,M,-30.0,M,,*4B
$GPGSA,A,3,30,22,17,14,06,24,19,02,,,,,1.08,0.81,0.71*0E
$GLGSA,A,3,78,81,88,79,80,82,,,,,,,1.08,0.81,0.71*12
$GNRMC,020844.000,A,3850.2319,N,09447.3435,W,0.31,14.35,261124,,,D*56
$GNVTG,14.35,T,,M,0.31,N,0.58,K,D*1A
$GNGGA,020845.000,3850.2320,N,09447.3435,W,2,14,0.81,328.2,M,-30.0,M,,*43
$GPGSA,A,3,30,22,17,14,06,24,19,02,,,,,1.08,0.81,0.71*0E
$GLGSA,A,3,78,81,88,79,80,82,,,,,,,1.08,0.81,0.71*12
$GNRMC,020845.000,A,3850.2320,N,09447.3435,W,0.94,6.77,261124,,,D*67
$GNVTG,6.77,T,,M,0.94,N,1.74,K,D*2F$GNGGA,020846.000,3850.2321,N,09447.3435,W,2,14,0.81,328.3,M,-30.0,M,,*40
$GPGSA,A,3,30,22,17,14,06,24,19,02,,,,,1.08,0.81,0.71*0E
$GLGSA,A,3,78,81,88,79,80,82,,,,,,,1.08,0.81,0.71*12
$GNRMC,020846.000,A,3850.2321,N,09447.3435,W,0.29,6.77,261124,,,D*63
$GNVTG,6.77,T,,M,0.29,N,0.54,K,D*2A
$GNGGA,020847.000,3850.2321,N,09447.3436,W,2,14,0.81,328.3,M,-30.0,M,,*42
$GPGSA,A,3,30,22,17,14,06,24,19,02,,,,,1.08,0.81,0.71*0E
$GLGSA,A,3,78,81,88,79,80,82,,,,,,,1.08,0.81,0.71*12
$GNRMC,020847.000,A,3850.2321,N,09447.3436,W,0.94,213.32,261124,,,D*60
$GNVTG,213.32,T,,M,0.94,N,1.74,K,D*28
$GNGGA,020848.000,3850.2319,N,09447.3437,W,2,14,0.81,328.1,M,-30.0,M,,*45
$GPGSA,A,3,30,22,17,14,06,24,19,02,,,,,1.08,0.81,0.71*0E
$GLGSA,A,3,78,81,88,79,80,82,,,,,,,1.08,0.81,0.71*12
$GPGSV,3,1,12,22,76,059,14,17,67,021,37,19,64,287,30,14,57,105,28*7D
$GPGSV,3,2,12,06,45,191,21,24,25,307,28,03,18,081,16,30,15,172,14*7B
$GPGSV,3,3,12,02,13,041,33,11,08,205,16,13,05,234,,46,,,*47
$GLGSV,2,1,07,79,81,106,27,81,72,015,29,82,52,227,27,80,38,328,34*65
$GLGSV,2,2,07,78,27,139,18,88,18,035,23,83,11,218,*54
$GNRMC,020848.000,A,3850.2319,N,09447.3437,W,0.89,202.35,261124,,,D*6E
$GNVTG,202.35,T,,M,0.89,N,1.64,K,D*22
$GNGGA,020849.000,3850.2318,N,09447.3437,W,2,14,0.81,327.8,M,-30.0,M,,*43
$GPGSA,A,3,30,22,17,14,06,24,19,02,,,,,1.08,0.81,0.71*0E
$GLGSA,A,3,78,81,88,79,80,82,,,,,,,1.08,0.81,0.71*12
$GNRMC,020849.000,A,3850.2318,N,09447.3437,W,0.47,202.35,261124,,,D*6C
$GNVTG,202.35,T,,M,0.47,N,0.87,K,D*2C
$GNGGA,020850.000,3850.2318,N,09447.3437,W,2,13,0.87,327.9,M,-30.0,M,,*4B
$GPGSA,A,3,22,17,14,06,24,19,02,,,,,,1.16,0.87,0.76*03
$GLGSA,A,3,78,81,88,79,80,82,,,,,,,1.16,0.87,0.76*1C
$GNRMC,020850.000,A,3850.2318,N,09447.3437,W,0.07,202.35,261124,,,D*60
$GNVTG,202.35,T,,M,0.07,N,0.13,K,D*25
$GNGGA,020851.000,3850.2317,N,09447.3437,W,2,13,0.87,327.6,M,-30.0,M,,*4A
$GPGSA,A,3,22,17,14,06,24,19,02,,,,,,1.16,0.87,0.76*03
$GLGSA,A,3,78,81,88,79,80,82,,,,,,,1.16,0.87,0.76*1C
$GNRMC,020851.000,A,3850.2317,N,09447.3437,W,0.61,21.95,261124,,,D*57
$GNVTG,21.95,T,,M,0.61,N,1.14,K,D*1A
$GNGGA,020852.000,3850.2318,N,09447.3436,W,2,13,0.87,327.9,M,-30.0,M,,*48
$GPGSA,A,3,22,17,14,06,24,19,02,,,,,,1.16,0.87,0.76*03
$GLGSA,A,3,78,81,88,79,80,82,,,,,,,1.16,0.87,0.76*1C
$GNRMC,020852.000,A,3850.2318,N,09447.3436,W,0.20,21.95,261124,,,D*5F
$GNVTG,21.95,T,,M,0.20,N,0.37,K,D*1F
$GNGGA,020853.000,3850.2319,N,09447.3437,W,2,13,0.87,327.9,M,-30.0,M,,*49
$GPGSA,A,3,22,17,14,06,24,19,02,,,,,,1.16,0.87,0.76*03
$GLGSA,A,3,78,81,88,79,80,82,,,,,,,1.16,0.87,0.76*1C
$GPGSV,3,1,12,22,76,059,13,17,67,021,37,19,64,287,30,14,57,105,26*74
$GPGSV,3,2,12,06,45,191,21,24,25,307,29,03,18,081,15,30,15,172,14*79
$GPGSV,3,3,12,02,13,041,32,11,08,205,17,13,05,234,,47,,,*46
$GLGSV,2,1,07,79,81,106,28,81,72,015,30,82,52,227,27,80,38,328,33*65
$GLGSV,2,2,07,78,27,139,18,88,18,035,23,83,11,218,*54
$GNRMC,020853.000,A,3850.2319,N,09447.3437,W,0.21,21.95,261124,,,D*5F
$GNVTG,21.95,T,,M,0.21,N,0.38,K,D*11
$GNGGA,020854.000,3850.2318,N,09447.3437,W,2,13,0.87,327.9,M,-30.0,M,,*4F
$GPGSA,A,3,22,17,14,06,24,19,02,,,,,,1.16,0.87,0.76*03
$GLGSA,A,3,78,81,88,79,80,82,,,,,,,1.16,0.87,0.76*1C
$GNRMC,020854.000,A,3850.2318,N,09447.3437,W,0.47,21.95,261124,,,D*59
$GNVTG,21.95,T,,M,0.47,N,0.88,K,D*1A
$GNGGA,020855.000,3850.2317,N,09447.3436,W,2,14,0.81,327.9,M,-30.0,M,,*41
$GPGSA,A,3,30,22,17,14,06,24,19,02,,,,,1.08,0.81,0.71*0E
$GLGSA,A,3,78,81,88,79,80,82,,,,,,,1.08,0.81,0.71*12
$GNRMC,020855.000,A,3850.2317,N,09447.3436,W,0.29,21.95,261124,,,D*5E
$GNVTG,21.95,T,,M,0.29,N,0.53,K,D*14
$GNGGA,020856.000,3850.2316,N,09447.3437,W,2,14,0.81,327.8,M,-30.0,M,,*43
$GPGSA,A,3,30,22,17,14,06,24,19,02,,,,,1.08,0.81,0.71*0E
$GLGSA,A,3,78,81,88,79,80,82,,,,,,,1.08,0.81,0.71*12
$GNRMC,020856.000,A,3850.2316,N,09447.3437,W,1.12,344.46,261124,,,D*6A
$GNVTG,344.46,T,,M,1.12,N,2.07,K,D*20
$GNGGA,020857.000,3850.2318,N,09447.3437,W,2,14,0.81,328.0,M,-30.0,M,,*4B
$GPGSA,A,3,30,22,17,14,06,24,19,02,,,,,1.08,0.81,0.71*0E
$GLGSA,A,3,78,81,88,79,80,82,,,,,,,1.08,0.81,0.71*12
$GNRMC,020857.000,A,3850.2318,N,09447.3437,W,0.81,347.61,261124,,,D*68
$GNVTG,347.61,T,,M,0.81,N,1.50,K,D*2C
$GNGGA,020858.000,3850.2319,N,09447.3436,W,2,14,0.81,328.2,M,-30.0,M,,*46
$GPGSA,A,3,30,22,17,14,06,24,19,02,,,,,1.08,0.81,0.71*0E
$GLGSA,A,3,78,81,88,79,80,82,,,,,,,1.08,0.81,0.71*12
$GPGSV,3,1,12,22,76,059,13,17,67,021,37,19,64,287,31,14,57,105,25*76
$GPGSV,3,2,12,06,45,191,21,24,25,307,29,03,18,081,13,30,15,172,12*79
$GPGSV,3,3,12,02,12,041,32,11,08,205,17,13,05,234,,49,,,*49
$GLGSV,2,1,07,79,81,106,27,81,72,015,30,82,52,227,27,80,38,328,33*6A
$GLGSV,2,2,07,78,27,139,14,88,18,035,23,83,11,218,*58
$GNRMC,020858.000,A,3850.2319,N,09447.3436,W,0.80,356.13,261124,,,D*63
$GNVTG,356.13,T,,M,0.80,N,1.49,K,D*20
$GNGGA,020859.000,3850.2321,N,09447.3436,W,2,14,0.81,328.4,M,-30.0,M,,*4A
$GPGSA,A,3,30,22,17,14,06,24,19,02,,,,,1.08,0.81,0.71*0E
$GLGSA,A,3,78,81,88,79,80,82,,,,,,,1.08,0.81,0.71*12
$GNRMC,020859.000,A,3850.2321,N,09447.3436,W,0.49,356.13,261124,,,D*6C
$GNVTG,356.13,T,,M,0.49,N,0.91,K,D*21
$GNGGA,020900.000,3850.2322,N,09447.3436,W,2,13,0.87,328.5,M,-30.0,M,,*44
$GPGSA,A,3,22,17,14,06,24,19,02,,,,,,1.16,0.87,0.76*03
$GLGSA,A,3,78,81,88,79,80,82,,,,,,,1.16,0.87,0.76*1C
$GNRMC,020900.000,A,3850.2322,N,09447.3436,W,0.16,356.13,261124,,,D*68
$GNVTG,356.13,T,,M,0.16,N,0.29,K,D*28
$GNGGA,020901.000,3850.2322,N,09447.3436,W,2,13,0.87,328.5,M,-30.0,M,,*45
$GPGSA,A,3,22,17,14,06,24,19,02,,,,,,1.16,0.87,0.76*03
$GLGSA,A,3,78,81,88,79,80,82,,,,,,,1.16,0.87,0.76*1C
$GNRMC,020901.000,A,3850.2322,N,09447.3436,W,0.13,356.13,261124,,,D*6C
$GNVTG,356.13,T,,M,0.13,N,0.24,K,D*20
$GNGGA,020902.000,3850.2321,N,09447.3436,W,2,12,0.88,328.4,M,-30.0,M,,*4A
$GPGSA,A,3,17,14,06,24,19,02,,,,,,,1.18,0.88,0.79*0D
$GLGSA,A,3,78,81,88,79,80,82,,,,,,,1.18,0.88,0.79*12
$GNRMC,020902.000,A,3850.2321,N,09447.3436,W,0.14,356.13,261124,,,D*6B
$GNVTG,356.13,T,,M,0.14,N,0.26,K,D*25
$GNGGA,020903.000,3850.2321,N,09447.3436,W,2,12,0.88,328.4,M,-30.0,M,,*4B
$GPGSA,A,3,30,17,14,06,24,19,02,,,,,,1.14,0.88,0.73*08
$GLGSA,A,3,81,88,79,80,82,,,,,,,,1.14,0.88,0.73*1B
$GPGSV,3,1,12,22,76,059,13,17,67,021,37,19,64,287,31,14,57,105,25*76
$GPGSV,3,2,12,06,46,191,20,51,43,199,,24,25,307,29,03,19,080,13*79
$GPGSV,3,3,12,30,15,172,13,02,12,041,32,11,08,205,17,13,05,234,*75
$GLGSV,2,1,07,79,81,106,25,81,72,015,30,82,52,227,26,80,38,328,33*69
$GLGSV,2,2,07,78,27,139,13,88,18,035,25,83,11,218,*59
$GNRMC,020903.000,A,3850.2321,N,09447.3436,W,1.36,348.23,261124,,,D*67
$GNVTG,348.23,T,,M,1.36,N,2.52,K,D*29
$GNGGA,020904.000,3850.2322,N,09447.3437,W,2,12,0.88,328.6,M,-30.0,M,,*4C
$GPGSA,A,3,30,17,14,06,24,19,02,,,,,,1.14,0.88,0.73*08
$GLGSA,A,3,81,88,79,80,82,,,,,,,,1.14,0.88,0.73*1B
$GNRMC,020904.000,A,3850.2322,N,09447.3437,W,1.08,11.14,261124,,,D*54
$GNVTG,11.14,T,,M,1.08,N,2.00,K,D*18
$GNGGA,020905.000,3850.2324,N,09447.3437,W,2,11,1.00,328.8,M,-30.0,M,,*47
$GPGSA,A,3,17,14,06,24,19,02,,,,,,,1.30,1.00,0.82*02
$GLGSA,A,3,81,88,79,80,82,,,,,,,,1.30,1.00,0.82*12
$GNRMC,020905.000,A,3850.2324,N,09447.3437,W,1.15,358.93,261124,,,D*6E
$GNVTG,358.93,T,,M,1.15,N,2.14,K,D*20
$GNGGA,020906.000,3850.2326,N,09447.3436,W,2,11,1.00,329.0,M,-30.0,M,,*4E
$GPGSA,A,3,17,14,06,24,19,02,,,,,,,1.29,1.00,0.82*0A
$GLGSA,A,3,81,88,79,80,82,,,,,,,,1.29,1.00,0.82*1A
$GNRMC,020906.000,A,3850.2326,N,09447.3436,W,0.58,358.93,261124,,,D*66
$GNVTG,358.93,T,,M,0.58,N,1.08,K,D*26
$GNGGA,020907.000,3850.2327,N,09447.3436,W,2,11,1.00,329.1,M,-30.0,M,,*4F
$GPGSA,A,3,17,14,06,24,19,02,,,,,,,1.30,1.00,0.82*02
$GLGSA,A,3,81,88,79,80,82,,,,,,,,1.30,1.00,0.82*12
$GNRMC,020907.000,A,3850.2327,N,09447.3436,W,1.01,161.99,261124,,,D*69
$GNVTG,161.99,T,,M,1.01,N,1.87,K,D*2E
$GNGGA,020908.000,3850.2324,N,09447.3436,W,2,11,1.00,328.9,M,-30.0,M,,*4A
$GPGSA,A,3,17,14,06,24,19,02,,,,,,,1.30,1.00,0.82*02
$GLGSA,A,3,81,88,79,80,82,,,,,,,,1.30,1.00,0.82*12
$GPGSV,3,1,12,22,76,059,13,17,67,021,37,19,64,287,31,14,57,105,25*76
$GPGSV,3,2,12,06,46,191,20,51,43,199,,24,25,307,29,03,19,080,14*7E
$GPGSV,3,3,12,30,15,172,12,02,12,041,32,11,09,206,17,13,05,234,*76
$GLGSV,2,1,07,79,81,106,25,81,72,015,30,82,52,227,28,80,38,328,33*67
$GLGSV,2,2,07,78,27,139,,88,18,035,25,83,11,218,*5B
$GNRMC,020908.000,A,3850.2324,N,09447.3436,W,0.93,177.23,261124,,,D*69
$GNVTG,177.23,T,,M,0.93,N,1.72,K,D*28
$GNGGA,020909.000,3850.2322,N,09447.3436,W,2,11,1.00,328.6,M,-30.0,M,,*42
$GPGSA,A,3,17,14,06,24,19,02,,,,,,,1.30,1.00,0.82*02
$GLGSA,A,3,81,88,79,80,82,,,,,,,,1.30,1.00,0.82*12
$GNRMC,020909.000,A,3850.2322,N,09447.3436,W,0.77,182.04,261124,,,D*6B
$GNVTG,182.04,T,,M,0.77,N,1.43,K,D*2F
$GNGGA,020910.000,3850.2321,N,09447.3436,W,2,11,1.00,328.4,M,-30.0,M,,*4B
$GPGSA,A,3,17,14,06,24,19,02,,,,,,,1.30,1.00,0.82*02
$GLGSA,A,3,81,88,79,80,82,,,,,,,,1.30,1.00,0.82*12
$GNRMC,020910.000,A,3850.2321,N,09447.3436,W,0.22,182.04,261124,,,D*60
$GNVTG,182.04,T,,M,0.22,N,0.41,K,D*2C
$GNGGA,020911.000,3850.2321,N,09447.3436,W,2,12,0.87,328.5,M,-30.0,M,,*46
$GPGSA,A,3,30,17,14,06,24,19,02,,,,,,1.14,0.87,0.73*07
$GLGSA,A,3,81,88,79,80,82,,,,,,,,1.14,0.87,0.73*14
$GNRMC,020911.000,A,3850.2321,N,09447.3436,W,0.08,182.04,261124,,,D*69
$GNVTG,182.04,T,,M,0.08,N,0.14,K,D*24
$GNGGA,020912.000,3850.2321,N,09447.3435,W,2,12,0.87,328.4,M,-30.0,M,,*47
$GPGSA,A,3,30,17,14,06,24,19,02,,,,,,1.14,0.87,0.73*07
$GLGSA,A,3,81,88,79,80,82,,,,,,,,1.14,0.87,0.73*14
$GNRMC,020912.000,A,3850.2321,N,09447.3435,W,1.08,192.94,261124,,,D*60
$GNVTG,192.94,T,,M,1.08,N,2.00,K,D*2A
$GNGGA,020913.000,3850.2318,N,09447.3435,W,2,12,0.87,328.2,M,-30.0,M,,*4A
$GPGSA,A,3,30,17,14,06,24,19,02,,,,,,1.14,0.87,0.73*07
$GLGSA,A,3,81,88,79,80,82,,,,,,,,1.14,0.87,0.73*14
$GPGSV,3,1,12,22,76,059,,17,67,022,37,19,64,287,31,14,56,106,25*75
$GPGSV,3,2,12,06,46,191,19,48,35,222,,24,25,307,30,03,19,080,12*70
$GPGSV,3,3,12,30,15,172,16,02,12,041,32,11,09,206,16,13,04,234,13*70
$GLGSV,2,1,07,79,81,106,24,81,72,015,30,82,52,227,27,80,38,328,33*69
$GLGSV,2,2,07,78,27,139,,88,18,035,26,83,11,218,*58
$GNRMC,020913.000,A,3850.2318,N,09447.3435,W,1.03,186.05,261124,,,D*6D
$GNVTG,186.05,T,,M,1.03,N,1.90,K,D*26
$GNGGA,020914.000,3850.2316,N,09447.3436,W,2,12,0.88,328.0,M,-30.0,M,,*4D
$GPGSA,A,3,30,17,14,06,24,19,02,,,,,,1.14,0.88,0.73*08
$GLGSA,A,3,81,88,79,80,82,,,,,,,,1.14,0.88,0.73*1B
$GNRMC,020914.000,A,3850.2316,N,09447.3436,W,0.49,186.05,261124,,,D*68
$GNVTG,186.05,T,,M,0.49,N,0.92,K,D*2A
$GNGGA,020915.000,3850.2317,N,09447.3435,W,2,12,0.88,328.0,M,-30.0,M,,*4E
$GPGSA,A,3,30,17,14,06,24,19,02,,,,,,1.14,0.88,0.73*08
$GLGSA,A,3,81,88,79,80,82,,,,,,,,1.14,0.88,0.73*1B
$GNRMC,020915.000,A,3850.2317,N,09447.3435,W,0.20,186.05,261124,,,D*64
$GNVTG,186.05,T,,M,0.20,N,0.38,K,D*25
$GNGGA,020916.000,3850.2315,N,09447.3436,W,2,12,0.87,327.9,M,-30.0,M,,*45
$GPGSA,A,3,30,17,14,06,24,19,02,,,,,,1.14,0.87,0.73*07
$GLGSA,A,3,81,88,79,80,82,,,,,,,,1.14,0.87,0.73*14
$GNRMC,020916.000,A,3850.2315,N,09447.3436,W,0.88,193.51,261124,,,D*61
$GNVTG,193.51,T,,M,0.88,N,1.62,K,D*2C
$GNGGA,020917.000,3850.2315,N,09447.3436,W,2,12,0.88,327.8,M,-30.0,M,,*4A
$GPGSA,A,3,30,17,14,06,24,19,02,,,,,,1.14,0.88,0.73*08
$GLGSA,A,3,81,88,79,80,82,,,,,,,,1.14,0.88,0.73*1B
$GNRMC,020917.000,A,3850.2315,N,09447.3436,W,0.88,187.10,261124,,,D*60
$GNVTG,187.10,T,,M,0.88,N,1.64,K,D*2A
$GNGGA,020918.000,3850.2313,N,09447.3436,W,2,12,0.88,327.6,M,-30.0,M,,*4D
$GPGSA,A,3,30,17,14,06,24,19,02,,,,,,1.14,0.88,0.73*08
$GLGSA,A,3,81,88,79,80,82,,,,,,,,1.14,0.88,0.73*1B
$GPGSV,3,1,12,22,75,062,,17,67,022,37,19,65,289,30,14,56,106,25*70
$GPGSV,3,2,12,06,46,191,18,48,35,222,,24,25,307,30,03,19,080,13*70
$GPGSV,3,3,12,30,15,172,14,02,12,041,33,11,09,206,15,13,04,234,*72
$GLGSV,2,1,07,79,81,106,25,81,72,015,30,82,52,227,27,80,38,328,33*68
$GLGSV,2,2,07,78,27,139,,88,18,035,26,83,11,218,*58
$GNRMC,020918.000,A,3850.2313,N,09447.3436,W,0.74,199.42,261124,,,D*62
$GNVTG,199.42,T,,M,0.74,N,1.37,K,D*27
$GNGGA,020919.000,3850.2312,N,09447.3437,W,2,12,0.88,327.5,M,-30.0,M,,*4F
$GPGSA,A,3,30,17,14,06,24,19,02,,,,,,1.14,0.88,0.73*08
$GLGSA,A,3,81,88,79,80,82,,,,,,,,1.14,0.88,0.73*1B
$GNRMC,020919.000,A,3850.2312,N,09447.3437,W,0.35,199.42,261124,,,D*66
$GNVTG,199.42,T,,M,0.35,N,0.65,K,D*24
$GNGGA,020920.000,3850.2312,N,09447.3437,W,2,12,0.88,327.5,M,-30.0,M,,*45
$GPGSA,A,3,30,17,14,06,24,19,02,,,,,,1.14,0.88,0.73*08
$GLGSA,A,3,81,88,79,80,82,,,,,,,,1.14,0.88,0.73*1B
$GNRMC,020920.000,A,3850.2312,N,09447.3437,W,0.24,199.42,261124,,,D*6C
$GNVTG,199.42,T,,M,0.24,N,0.44,K,D*27
$GNGGA,020921.000,3850.2313,N,09447.3435,W,2,12,0.88,327.5,M,-30.0,M,,*47
$GPGSA,A,3,30,17,14,06,24,19,02,,,,,,1.14,0.88,0.73*08
$GLGSA,A,3,81,88,79,80,82,,,,,,,,1.14,0.88,0.73*1B
$GNRMC,020921.000,A,3850.2313,N,09447.3435,W,0.19,199.42,261124,,,D*60
$GNVTG,199.42,T,,M,0.19,N,0.36,K,D*2C
$GNGGA,020922.000,3850.2314,N,09447.3434,W,2,12,0.88,327.6,M,-30.0,M,,*41
$GPGSA,A,3,30,17,14,06,24,19,02,,,,,,1.14,0.88,0.73*08
$GLGSA,A,3,81,88,79,80,82,,,,,,,,1.14,0.88,0.73*1B
$GNRMC,020922.000,A,3850.2314,N,09447.3434,W,0.54,199.42,261124,,,D*6C
$GNVTG,199.42,T,,M,0.54,N,1.00,K,D*21
$GNGGA,020923.000,3850.2314,N,09447.3433,W,2,12,0.88,327.6,M,-30.0,M,,*47
$GPGSA,A,3,30,17,14,06,24,19,02,,,,,,1.14,0.88,0.73*08
$GLGSA,A,3,81,88,79,80,82,,,,,,,,1.14,0.88,0.73*1B
$GPGSV,3,1,12,22,75,062,,17,67,022,36,19,65,289,30,14,56,106,26*72
$GPGSV,3,2,12,06,46,191,18,24,25,307,30,03,19,080,,30,15,172,15*7D
$GPGSV,3,3,12,02,12,041,33,11,09,206,16,13,04,234,,34,,,*40
$GLGSV,2,1,07,79,81,106,25,81,72,015,30,82,52,227,27,80,38,328,34*6F
$GLGSV,2,2,07,78,27,139,,88,18,035,26,83,11,218,*58
$GNRMC,020923.000,A,3850.2314,N,09447.3433,W,0.20,199.42,261124,,,D*69
$GNVTG,199.42,T,,M,0.20,N,0.38,K,D*28
$GNGGA,020924.000,3850.2314,N,09447.3433,W,2,12,0.88,327.6,M,-30.0,M,,*40
$GPGSA,A,3,30,17,14,06,24,19,02,,,,,,1.14,0.88,0.73*08
$GLGSA,A,3,81,88,79,80,82,,,,,,,,1.14,0.88,0.73*1B
$GNRMC,020924.000,A,3850.2314,N,09447.3433,W,0.16,199.42,261124,,,D*6B
$GNVTG,199.42,T,,M,0.16,N,0.29,K,D*2D
$GNGGA,020925.000,3850.2315,N,09447.3433,W,2,12,0.88,327.6,M,-30.0,M,,*40
$GPGSA,A,3,30,17,14,06,24,19,02,,,,,,1.14,0.88,0.73*08
$GLGSA,A,3,81,88,79,80,82,,,,,,,,1.14,0.88,0.73*1B
$GNRMC,020925.000,A,3850.2315,N,09447.3433,W,0.33,199.42,261124,,,D*6C
$GNVTG,199.42,T,,M,0.33,N,0.61,K,D*26
$GNGGA,020926.000,3850.2317,N,09447.3432,W,2,12,0.88,327.7,M,-30.0,M,,*41
$GPGSA,A,3,30,17,14,06,24,19,02,,,,,,1.14,0.88,0.73*08
$GLGSA,A,3,81,88,79,80,82,,,,,,,,1.14,0.88,0.73*1B
$GNRMC,020926.000,A,3850.2317,N,09447.3432,W,0.69,195.97,261124,,,D*67
$GNVTG,195.97,T,,M,0.69,N,1.28,K,D*21
$GNGGA,020927.000,3850.2316,N,09447.3432,W,2,12,0.88,327.5,M,-30.0,M,,*43
$GPGSA,A,3,30,17,14,06,24,19,02,,,,,,1.14,0.88,0.73*08
$GLGSA,A,3,81,88,79,80,82,,,,,,,,1.14,0.88,0.73*1B
$GNRMC,020927.000,A,3850.2316,N,09447.3432,W,0.82,181.59,261124,,,D*65
