     3.03           OBSERVATION DATA    MIXED           RINEX VERSION / TYPE
Generated by NMEA to RINEX script
20241125 235439 UTC                              TIME OF CREATION
                                                            END OF HEADER
> 2024 11 25 23 54 39  0
GPS    3850.22810000   -9447.34370000         323.2000
> 2024 11 25 23 54 39  0
GPS    3850.22810000   -9447.34370000         323.2000
> 2024 11 25 23 54 39  0
GPS    3850.22790000   -9447.34380000         323.1000
G11          72.0000          10.0000          25.0000
G20          70.0000         163.0000          27.0000
G12          63.0000         239.0000          26.0000
G05          40.0000         190.0000          27.0000
G44          39.0000         213.0000           0.0000
G06          32.0000          54.0000          20.0000
G29          17.0000         301.0000          19.0000
G09          10.0000          60.0000          15.0000
G17           4.0000         111.0000           0.0000
R85          55.0000         357.0000          31.0000
R75          41.0000         234.0000           0.0000
R76          32.0000         311.0000          31.0000
R86          29.0000         287.0000          28.0000
R69          28.0000          52.0000          23.0000
R84          23.0000          60.0000           0.0000
R71           2.0000         165.0000           0.0000
> 2024 11 25 23 54 39  0
GPS    3850.22780000   -9447.34400000         323.0000
> 2024 11 25 23 54 39  0
GPS    3850.22790000   -9447.34410000         323.0000
> 2024 11 25 23 54 39  0
GPS    3850.22800000   -9447.34420000         322.9000
> 2024 11 25 23 54 39  0
GPS    3850.22810000   -9447.34430000         322.9000
> 2024 11 25 23 54 39  0
GPS    3850.22820000   -9447.34430000         322.9000
G11          72.0000          10.0000          24.0000
G20          71.0000         161.0000          28.0000
G12          63.0000         239.0000          25.0000
G05          40.0000         190.0000          27.0000
G44          39.0000         213.0000           0.0000
G06          32.0000          54.0000          20.0000
G29          17.0000         301.0000          19.0000
G09          10.0000          60.0000          17.0000
G17           4.0000         111.0000           0.0000
R85          55.0000         357.0000          32.0000
R75          41.0000         234.0000           0.0000
R76          32.0000         311.0000          31.0000
R86          29.0000         287.0000          28.0000
R69          28.0000          52.0000          22.0000
R84          23.0000          60.0000           0.0000
R71           2.0000         165.0000           0.0000
> 2024 11 25 23 54 39  0
GPS    3850.22840000   -9447.34440000         322.9000
> 2024 11 25 23 54 39  0
GPS    3850.22860000   -9447.34430000         322.9000
> 2024 11 25 23 54 39  0
GPS    3850.22870000   -9447.34430000         322.8000
> 2024 11 25 23 54 39  0
GPS    3850.22870000   -9447.34440000         322.8000
> 2024 11 25 23 54 39  0
GPS    3850.22870000   -9447.34430000         322.9000
G11          72.0000          10.0000          24.0000
G20          71.0000         161.0000          28.0000
G12          63.0000         239.0000          24.0000
G05          40.0000         190.0000          27.0000
G44          39.0000         213.0000           0.0000
G06          32.0000          54.0000          20.0000
G29          17.0000         301.0000          19.0000
G09          10.0000          60.0000          17.0000
G17           4.0000         111.0000           0.0000
R85          55.0000         357.0000          31.0000
R75          41.0000         234.0000          16.0000
R76          32.0000         311.0000          31.0000
R86          29.0000         287.0000          28.0000
R69          28.0000          52.0000          22.0000
R84          23.0000          60.0000           0.0000
R71           2.0000         165.0000           0.0000
> 2024 11 25 23 54 39  0
GPS    3850.22880000   -9447.34430000         322.9000
> 2024 11 25 23 54 39  0
GPS    3850.22880000   -9447.34430000         322.9000
> 2024 11 25 23 54 39  0
GPS    3850.22880000   -9447.34430000         322.9000
> 2024 11 25 23 54 39  0
GPS    3850.22880000   -9447.34430000         322.9000
> 2024 11 25 23 54 39  0
GPS    3850.22870000   -9447.34440000         322.9000
G11          72.0000          10.0000          24.0000
G20          71.0000         161.0000          27.0000
G12          63.0000         239.0000          25.0000
G05          40.0000         190.0000          27.0000
G44          39.0000         213.0000          25.0000
G06          32.0000          54.0000          19.0000
G29          18.0000         302.0000          20.0000
G09          10.0000          60.0000          18.0000
G17           4.0000         111.0000           0.0000
R85          55.0000         357.0000          31.0000
R75          41.0000         234.0000          14.0000
R76          32.0000         311.0000          31.0000
R86          29.0000         287.0000          28.0000
R69          28.0000          52.0000          23.0000
R84          23.0000          60.0000           0.0000
R71           2.0000         165.0000           0.0000
> 2024 11 25 23 54 39  0
GPS    3850.22870000   -9447.34460000         322.9000
> 2024 11 25 23 54 39  0
GPS    3850.22870000   -9447.34460000         322.9000
> 2024 11 25 23 54 39  0
GPS    3850.22860000   -9447.34470000         322.9000
> 2024 11 25 23 54 39  0
GPS    3850.22870000   -9447.34470000         322.9000
> 2024 11 25 23 54 39  0
GPS    3850.22860000   -9447.34480000         322.9000
G11          72.0000          10.0000          24.0000
G20          71.0000         161.0000          27.0000
G12          63.0000         239.0000          25.0000
G05          40.0000         190.0000          27.0000
G44          39.0000         213.0000          25.0000
G06          32.0000          54.0000          19.0000
G29          18.0000         302.0000          21.0000
G09          10.0000          60.0000          18.0000
G17           4.0000         111.0000           0.0000
R85          55.0000         357.0000          31.0000
R75          41.0000         234.0000          15.0000
R76          32.0000         311.0000          31.0000
R86          29.0000         287.0000          28.0000
R69          28.0000          52.0000          23.0000
R84          23.0000          60.0000           0.0000
R71           2.0000         165.0000           0.0000
> 2024 11 25 23 54 39  0
GPS    3850.22870000   -9447.34490000         322.9000
> 2024 11 25 23 54 39  0
GPS    3850.22860000   -9447.34500000         322.9000
> 2024 11 25 23 54 39  0
GPS    3850.22870000   -9447.34510000         322.9000
> 2024 11 25 23 54 39  0
GPS    3850.22860000   -9447.34520000         322.9000
> 2024 11 25 23 54 39  0
GPS    3850.22860000   -9447.34530000         323.0000
G11          72.0000          10.0000          24.0000
G20          71.0000         161.0000          27.0000
G12          63.0000         239.0000          25.0000
G25          42.0000         296.0000          30.0000
G05          40.0000         190.0000          27.0000
G06          32.0000          54.0000          19.0000
G29          18.0000         302.0000          22.0000
G09          10.0000          60.0000          17.0000
G17           4.0000         111.0000           0.0000
R85          55.0000         357.0000          31.0000
R75          41.0000         234.0000          13.0000
R76          32.0000         311.0000          31.0000
R86          29.0000         287.0000          27.0000
R69          28.0000          52.0000          23.0000
R84          23.0000          60.0000           0.0000
R71           2.0000         165.0000           0.0000
> 2024 11 25 23 54 39  0
GPS    3850.22860000   -9447.34530000         323.2000
> 2024 11 25 23 54 39  0
GPS    3850.22870000   -9447.34530000         323.1000
> 2024 11 25 23 54 39  0
GPS    3850.22870000   -9447.34520000         323.1000
> 2024 11 25 23 54 39  0
GPS    3850.22870000   -9447.34520000         323.2000
> 2024 11 25 23 54 39  0
GPS    3850.22870000   -9447.34500000         323.1000
G11          72.0000          10.0000          24.0000
G20          71.0000         161.0000          27.0000
G12          63.0000         239.0000          25.0000
G25          42.0000         296.0000          30.0000
G05          40.0000         190.0000          26.0000
G06          32.0000          54.0000          19.0000
G29          18.0000         302.0000          22.0000
G09          10.0000          60.0000          17.0000
G17           4.0000         111.0000           0.0000
R85          55.0000         357.0000          30.0000
R75          41.0000         234.0000           0.0000
R76          32.0000         311.0000          30.0000
R86          29.0000         287.0000          27.0000
R69          28.0000          52.0000          22.0000
R84          23.0000          60.0000           0.0000
R71           2.0000         165.0000           0.0000
> 2024 11 25 23 54 39  0
GPS    3850.22870000   -9447.34500000         323.2000
> 2024 11 25 23 54 39  0
GPS    3850.22860000   -9447.34510000         323.4000
> 2024 11 25 23 54 39  0
GPS    3850.22850000   -9447.34510000         323.4000
> 2024 11 25 23 54 39  0
GPS    3850.22870000   -9447.34510000         323.5000
> 2024 11 25 23 54 39  0
GPS    3850.22880000   -9447.34510000         323.5000
G11          72.0000          10.0000          24.0000
G20          71.0000         161.0000          27.0000
G12          63.0000         239.0000          26.0000
G05          40.0000         190.0000          26.0000
G06          32.0000          54.0000          19.0000
G48          30.0000         231.0000           0.0000
G29          18.0000         302.0000          23.0000
G09          10.0000          60.0000          18.0000
G17           4.0000         111.0000           0.0000
R85          55.0000         357.0000          31.0000
R75          41.0000         234.0000           0.0000
R76          32.0000         311.0000          30.0000
R86          29.0000         287.0000          27.0000
R69          28.0000          52.0000          21.0000
R84          23.0000          60.0000           0.0000
R71           2.0000         165.0000           0.0000
> 2024 11 25 23 54 39  0
GPS    3850.22880000   -9447.34510000         323.5000
> 2024 11 25 23 54 39  0
GPS    3850.22870000   -9447.34500000         323.6000
> 2024 11 25 23 54 39  0
GPS    3850.22870000   -9447.34470000         323.6000
> 2024 11 25 23 54 39  0
GPS    3850.22850000   -9447.34480000         323.6000
> 2024 11 25 23 54 39  0
GPS    3850.22860000   -9447.34500000         323.8000
G11          72.0000          10.0000          26.0000
G20          71.0000         161.0000          29.0000
G12          63.0000         239.0000          29.0000
G05          40.0000         190.0000          28.0000
G06          32.0000          54.0000          22.0000
G48          30.0000         231.0000           0.0000
G29          18.0000         302.0000          24.0000
G09          10.0000          60.0000          18.0000
G17           4.0000         111.0000           0.0000
R85          55.0000         357.0000          34.0000
R75          41.0000         234.0000           0.0000
R76          32.0000         311.0000          32.0000
R86          29.0000         287.0000          30.0000
R69          28.0000          52.0000          24.0000
R84          23.0000          60.0000           0.0000
R71           2.0000         165.0000           0.0000
> 2024 11 25 23 54 39  0
GPS    3850.22870000   -9447.34500000         324.0000
> 2024 11 25 23 54 39  0
GPS    3850.22880000   -9447.34500000         324.0000
> 2024 11 25 23 54 39  0
GPS    3850.22890000   -9447.34500000         323.9000
> 2024 11 25 23 54 39  0
GPS    3850.22890000   -9447.34500000         324.1000
> 2024 11 25 23 54 39  0
GPS    3850.22900000   -9447.34500000         324.0000
G11          72.0000          10.0000          25.0000
G20          71.0000         161.0000          28.0000
G12          63.0000         239.0000          26.0000
G05          40.0000         190.0000          27.0000
G44          39.0000         213.0000           0.0000
G06          32.0000          54.0000          21.0000
G29          18.0000         302.0000          23.0000
G09          10.0000          60.0000          18.0000
G17           4.0000         111.0000           0.0000
R85          55.0000         357.0000          32.0000
R75          41.0000         234.0000           0.0000
R76          32.0000         311.0000          31.0000
R86          29.0000         287.0000          28.0000
R69          28.0000          52.0000          22.0000
R84          23.0000          60.0000           0.0000
R71           2.0000         165.0000           0.0000
> 2024 11 25 23 54 39  0
GPS    3850.22890000   -9447.34500000         324.0000
> 2024 11 25 23 54 39  0
GPS    3850.22880000   -9447.34490000         323.9000
> 2024 11 25 23 54 39  0
GPS    3850.22880000   -9447.34480000         323.9000
> 2024 11 25 23 54 39  0
GPS    3850.22880000   -9447.34480000         323.9000
> 2024 11 25 23 54 39  0
GPS    3850.22880000   -9447.34480000         323.9000
G11          72.0000          10.0000          24.0000
G20          71.0000         161.0000          27.0000
G12          63.0000         239.0000          26.0000
G05          40.0000         190.0000          26.0000
G44          39.0000         213.0000           0.0000
G06          32.0000          54.0000          20.0000
G29          18.0000         302.0000          23.0000
G09          10.0000          60.0000          18.0000
G17           4.0000         111.0000           0.0000
R85          55.0000         357.0000          31.0000
R75          41.0000         234.0000           0.0000
R76          32.0000         311.0000          30.0000
R86          29.0000         287.0000          27.0000
R69          28.0000          52.0000          22.0000
R84          23.0000          60.0000           0.0000
R71           2.0000         165.0000           0.0000
> 2024 11 25 23 54 39  0
GPS    3850.22880000   -9447.34470000         323.9000
> 2024 11 25 23 54 39  0
GPS    3850.22880000   -9447.34460000         323.9000
> 2024 11 25 23 54 39  0
GPS    3850.22880000   -9447.34470000         323.9000
> 2024 11 25 23 54 39  0
GPS    3850.22880000   -9447.34470000         323.8000
> 2024 11 25 23 54 39  0
GPS    3850.22890000   -9447.34470000         323.8000
G11          72.0000          10.0000          24.0000
G20          71.0000         161.0000          27.0000
G12          63.0000         239.0000          26.0000
G05          40.0000         190.0000          27.0000
G44          39.0000         213.0000           0.0000
G06          32.0000          54.0000          21.0000
G29          18.0000         302.0000          23.0000
G09          10.0000          60.0000          17.0000
G17           4.0000         111.0000           0.0000
R85          55.0000         357.0000          31.0000
R75          41.0000         234.0000          16.0000
R76          32.0000         311.0000          30.0000
R86          29.0000         287.0000          28.0000
R69          27.0000          51.0000          20.0000
R84          23.0000          60.0000           0.0000
R71           2.0000         164.0000           0.0000
> 2024 11 25 23 54 39  0
GPS    3850.22890000   -9447.34470000         323.8000
> 2024 11 25 23 54 39  0
GPS    3850.22890000   -9447.34480000         323.8000
> 2024 11 25 23 54 39  0
GPS    3850.22890000   -9447.34490000         323.8000
> 2024 11 25 23 54 39  0
GPS    3850.22900000   -9447.34490000         323.8000
> 2024 11 25 23 54 39  0
GPS    3850.22900000   -9447.34490000         323.8000
G11          72.0000          10.0000          24.0000
G20          71.0000         161.0000          26.0000
G12          63.0000         239.0000          26.0000
G25          42.0000         296.0000          31.0000
G05          40.0000         190.0000          27.0000
G06          32.0000          54.0000          21.0000
G29          18.0000         302.0000          23.0000
G09          10.0000          60.0000          17.0000
G17           4.0000         111.0000           0.0000
R85          55.0000         357.0000          31.0000
R75          40.0000         233.0000          15.0000
R76          32.0000         310.0000          30.0000
R86          29.0000         287.0000          28.0000
R69          27.0000          51.0000          20.0000
R84          23.0000          60.0000           0.0000
R71           2.0000         164.0000           0.0000
> 2024 11 25 23 54 39  0
GPS    3850.22910000   -9447.34480000         323.8000
> 2024 11 25 23 54 39  0
GPS    3850.22910000   -9447.34460000         323.8000
> 2024 11 25 23 54 39  0
GPS    3850.22920000   -9447.34450000         323.8000
> 2024 11 25 23 54 39  0
GPS    3850.22920000   -9447.34460000         323.8000
> 2024 11 25 23 54 39  0
GPS    3850.22920000   -9447.34450000         323.8000
G11          72.0000          10.0000          23.0000
G20          71.0000         161.0000          25.0000
G12          63.0000         239.0000          26.0000
G25          42.0000         296.0000          31.0000
G05          40.0000         190.0000          27.0000
G06          32.0000          54.0000          21.0000
G29          18.0000         302.0000          23.0000
G09          10.0000          60.0000          18.0000
G17           4.0000         111.0000           0.0000
R85          55.0000         357.0000          31.0000
R75          40.0000         233.0000          14.0000
R76          32.0000         310.0000          30.0000
R86          29.0000         287.0000          27.0000
R69          27.0000          51.0000          21.0000
R84          23.0000          60.0000           0.0000
R71           2.0000         164.0000           0.0000
> 2024 11 25 23 54 39  0
GPS    3850.22940000   -9447.34460000         323.9000
> 2024 11 25 23 54 39  0
GPS    3850.22970000   -9447.34450000         323.9000
> 2024 11 25 23 54 39  0
GPS    3850.22990000   -9447.34430000         323.8000
> 2024 11 25 23 54 39  0
GPS    3850.23010000   -9447.34400000         323.8000
> 2024 11 25 23 54 39  0
GPS    3850.23030000   -9447.34400000         323.9000
G11          72.0000          10.0000          23.0000
G20          71.0000         161.0000          26.0000
G12          63.0000         239.0000          27.0000
G05          40.0000         190.0000          28.0000
G06          32.0000          54.0000          20.0000
G48          30.0000         231.0000           0.0000
G29          18.0000         302.0000          24.0000
G09          10.0000          60.0000          19.0000
G17           4.0000         111.0000           0.0000
R85          55.0000         359.0000          31.0000
R75          40.0000         233.0000          16.0000
R76          32.0000         310.0000          30.0000
R86          29.0000         288.0000          26.0000
R69          27.0000          51.0000          21.0000
R84          22.0000          61.0000           0.0000
R71           2.0000         164.0000           0.0000
> 2024 11 25 23 54 39  0
GPS    3850.23050000   -9447.34410000         323.9000
> 2024 11 25 23 54 39  0
GPS    3850.23060000   -9447.34410000         323.9000
> 2024 11 25 23 54 39  0
GPS    3850.23070000   -9447.34390000         323.9000
> 2024 11 25 23 54 39  0
GPS    3850.23080000   -9447.34350000         323.9000
> 2024 11 25 23 54 39  0
GPS    3850.23080000   -9447.34350000         323.9000
G11          72.0000          10.0000          23.0000
G20          71.0000         161.0000          26.0000
G12          63.0000         239.0000          27.0000
G05          40.0000         190.0000          28.0000
G06          32.0000          54.0000          21.0000
G48          30.0000         231.0000           0.0000
G29          18.0000         302.0000          24.0000
G09          10.0000          60.0000          19.0000
G17           4.0000         111.0000           0.0000
R85          55.0000         359.0000          32.0000
R75          40.0000         233.0000          16.0000
R76          32.0000         310.0000          30.0000
R86          29.0000         288.0000          27.0000
R69          27.0000          51.0000          19.0000
R84          22.0000          61.0000           0.0000
R71           2.0000         164.0000           0.0000
> 2024 11 25 23 54 39  0
GPS    3850.23090000   -9447.34340000         323.9000
> 2024 11 25 23 54 39  0
GPS    3850.23080000   -9447.34340000         323.9000
> 2024 11 25 23 54 39  0
GPS    3850.23070000   -9447.34340000         323.8000
> 2024 11 25 23 54 39  0
GPS    3850.23070000   -9447.34340000         323.8000
> 2024 11 25 23 54 39  0
GPS    3850.23070000   -9447.34360000         324.0000
G11          72.0000          10.0000          23.0000
G20          71.0000         161.0000          25.0000
G12          63.0000         239.0000          26.0000
G05          40.0000         190.0000          28.0000
G06          32.0000          54.0000          20.0000
G19          23.0000         104.0000          19.0000
G09          10.0000          60.0000          19.0000
G17           4.0000         111.0000           0.0000
G28           1.0000         317.0000           0.0000
R85          55.0000         359.0000          32.0000
R75          40.0000         233.0000          15.0000
R76          32.0000         310.0000          30.0000
R86          29.0000         288.0000          27.0000
R69          27.0000          51.0000          19.0000
R84          22.0000          61.0000           0.0000
R71           2.0000         164.0000           0.0000
> 2024 11 25 23 54 39  0
GPS    3850.23070000   -9447.34340000         323.9000
> 2024 11 25 23 54 39  0
GPS    3850.23070000   -9447.34320000         323.9000
> 2024 11 25 23 54 39  0
GPS    3850.23060000   -9447.34340000         323.9000
> 2024 11 25 23 54 39  0
GPS    3850.23070000   -9447.34310000         323.9000
> 2024 11 25 23 54 39  0
GPS    3850.23080000   -9447.34320000         324.0000
G11          72.0000          10.0000          24.0000
G20          71.0000         161.0000          26.0000
G12          63.0000         239.0000          26.0000
G05          40.0000         190.0000          27.0000
G06          32.0000          54.0000          20.0000
G19          23.0000         104.0000          19.0000
G09          10.0000          60.0000          18.0000
G17           4.0000         111.0000           0.0000
G28           1.0000         317.0000           0.0000
R85          55.0000         359.0000          31.0000
R75          40.0000         233.0000           0.0000
R76          32.0000         310.0000          30.0000
R86          29.0000         288.0000          27.0000
R69          27.0000          51.0000          20.0000
R84          22.0000          61.0000           0.0000
R71           2.0000         164.0000           0.0000
> 2024 11 25 23 54 39  0
GPS    3850.23100000   -9447.34310000         324.1000
> 2024 11 25 23 54 39  0
GPS    3850.23100000   -9447.34320000         324.2000
> 2024 11 25 23 54 39  0
GPS    3850.23090000   -9447.34300000         324.2000
> 2024 11 25 23 54 39  0
GPS    3850.23100000   -9447.34310000         324.3000
> 2024 11 25 23 54 39  0
GPS    3850.23100000   -9447.34320000         324.3000
G11          72.0000          10.0000          24.0000
G20          71.0000         161.0000          26.0000
G12          63.0000         239.0000          26.0000
G05          40.0000         190.0000          27.0000
G06          32.0000          54.0000          20.0000
G19          23.0000         104.0000          19.0000
G09          10.0000          60.0000          19.0000
G17           4.0000         111.0000           0.0000
G28           1.0000         317.0000           0.0000
R85          55.0000         359.0000          31.0000
R75          40.0000         233.0000           0.0000
R76          32.0000         310.0000          30.0000
R86          29.0000         288.0000          26.0000
R69          27.0000          51.0000          20.0000
R84          22.0000          61.0000           0.0000
R71           2.0000         164.0000           0.0000
> 2024 11 25 23 54 39  0
GPS    3850.23110000   -9447.34320000         324.2000
> 2024 11 25 23 54 39  0
GPS    3850.23130000   -9447.34310000         324.2000
> 2024 11 25 23 54 39  0
GPS    3850.23130000   -9447.34310000         324.2000
> 2024 11 25 23 54 39  0
GPS    3850.23130000   -9447.34310000         324.2000
> 2024 11 25 23 54 39  0
GPS    3850.23120000   -9447.34310000         324.3000
G11          72.0000          10.0000          23.0000
G20          71.0000         161.0000          26.0000
G12          63.0000         239.0000          26.0000
G05          40.0000         190.0000          27.0000
G06          32.0000          54.0000          20.0000
G19          23.0000         104.0000          19.0000
G09          10.0000          60.0000          19.0000
G17           4.0000         111.0000           0.0000
G28           1.0000         317.0000           0.0000
R85          55.0000         359.0000          32.0000
R75          40.0000         233.0000           0.0000
R76          32.0000         310.0000          30.0000
R86          29.0000         288.0000          27.0000
R69          27.0000          51.0000          20.0000
R84          22.0000          61.0000           0.0000
R71           2.0000         164.0000           0.0000
> 2024 11 25 23 54 39  0
GPS    3850.23130000   -9447.34300000         324.3000
> 2024 11 25 23 54 39  0
GPS    3850.23110000   -9447.34300000         324.2000
> 2024 11 25 23 54 39  0
GPS    3850.23130000   -9447.34300000         324.3000
> 2024 11 25 23 54 39  0
GPS    3850.23130000   -9447.34310000         324.5000
> 2024 11 25 23 54 39  0
GPS    3850.23140000   -9447.34310000         324.5000
G11          72.0000          10.0000          23.0000
G20          71.0000         161.0000          27.0000
G12          63.0000         239.0000          25.0000
G05          40.0000         190.0000          25.0000
G06          32.0000          54.0000          20.0000
G19          23.0000         104.0000          19.0000
G09          10.0000          60.0000          19.0000
G17           4.0000         111.0000           0.0000
G28           1.0000         317.0000           0.0000
R85          55.0000         359.0000          32.0000
R75          40.0000         233.0000           0.0000
R76          32.0000         310.0000          29.0000
R86          29.0000         288.0000          26.0000
R69          27.0000          51.0000          20.0000
R84          22.0000          61.0000           0.0000
R71           2.0000         164.0000           0.0000
> 2024 11 25 23 54 39  0
GPS    3850.23120000   -9447.34310000         324.5000
> 2024 11 25 23 54 39  0
GPS    3850.23100000   -9447.34320000         324.3000
> 2024 11 25 23 54 39  0
GPS    3850.23100000   -9447.34320000         324.2000
> 2024 11 25 23 54 39  0
GPS    3850.23090000   -9447.34340000         324.2000
> 2024 11 25 23 54 39  0
GPS    3850.23100000   -9447.34360000         324.2000
G11          72.0000          10.0000          22.0000
G20          71.0000         161.0000          25.0000
G12          63.0000         239.0000          24.0000
G05          40.0000         190.0000          27.0000
G06          32.0000          54.0000          19.0000
G19          23.0000         104.0000          19.0000
G09          10.0000          60.0000          19.0000
G17           4.0000         111.0000           0.0000
G28           1.0000         317.0000           0.0000
R85          55.0000         359.0000          33.0000
R75          40.0000         233.0000           0.0000
R76          32.0000         310.0000          29.0000
R86          29.0000         288.0000          26.0000
R69          27.0000          51.0000          21.0000
R84          22.0000          61.0000           0.0000
R71           2.0000         164.0000           0.0000
> 2024 11 25 23 54 39  0
GPS    3850.23100000   -9447.34350000         324.2000
> 2024 11 25 23 54 39  0
GPS    3850.23090000   -9447.34340000         324.2000
> 2024 11 25 23 54 39  0
GPS    3850.23090000   -9447.34330000         324.1000
> 2024 11 25 23 54 39  0
GPS    3850.23080000   -9447.34290000         323.9000
> 2024 11 25 23 54 39  0
GPS    3850.23100000   -9447.34280000         324.1000
G11          72.0000          10.0000          22.0000
G20          71.0000         161.0000          25.0000
G12          63.0000         239.0000          25.0000
G05          41.0000         190.0000          25.0000
G06          31.0000          54.0000          19.0000
G19          23.0000         104.0000          20.0000
G09          10.0000          60.0000          17.0000
G17           4.0000         111.0000           0.0000
G28           1.0000         317.0000           0.0000
R85          55.0000         359.0000          33.0000
R75          40.0000         233.0000           0.0000
R76          32.0000         310.0000          29.0000
R86          29.0000         288.0000          26.0000
R69          27.0000          51.0000          21.0000
R84          22.0000          61.0000           0.0000
R71           2.0000         164.0000           0.0000
> 2024 11 25 23 54 39  0
GPS    3850.23120000   -9447.34270000         324.2000
> 2024 11 25 23 54 39  0
GPS    3850.23120000   -9447.34270000         324.4000
> 2024 11 25 23 54 39  0
GPS    3850.23120000   -9447.34270000         324.6000
> 2024 11 25 23 54 39  0
GPS    3850.23140000   -9447.34270000         324.7000
> 2024 11 25 23 54 39  0
GPS    3850.23120000   -9447.34260000         324.6000
G11          71.0000          12.0000          22.0000
G20          71.0000         161.0000          25.0000
G12          62.0000         237.0000          26.0000
G05          41.0000         190.0000          25.0000
G06          31.0000          54.0000          18.0000
G19          23.0000         104.0000          21.0000
G09          11.0000          59.0000          17.0000
G17           4.0000         111.0000           0.0000
G28           1.0000         317.0000           0.0000
R85          55.0000         359.0000          33.0000
R75          40.0000         233.0000           0.0000
R76          32.0000         310.0000          29.0000
R86          29.0000         288.0000          27.0000
R69          27.0000          51.0000          22.0000
R84          22.0000          61.0000           0.0000
R71           2.0000         164.0000           0.0000
> 2024 11 25 23 54 39  0
GPS    3850.23120000   -9447.34260000         324.6000
> 2024 11 25 23 54 39  0
GPS    3850.23140000   -9447.34260000         324.6000
> 2024 11 25 23 54 39  0
GPS    3850.23130000   -9447.34260000         324.6000
> 2024 11 25 23 54 39  0
GPS    3850.23150000   -9447.34260000         324.7000
> 2024 11 25 23 54 39  0
GPS    3850.23130000   -9447.34260000         324.6000
G11          71.0000          12.0000          21.0000
G20          71.0000         161.0000          25.0000
G12          62.0000         237.0000          25.0000
G05          41.0000         190.0000          25.0000
G06          31.0000          54.0000          18.0000
G19          23.0000         104.0000          22.0000
G09          11.0000          59.0000          17.0000
G17           4.0000         112.0000           0.0000
G28           1.0000         317.0000           0.0000
R85          55.0000         359.0000          33.0000
R75          40.0000         233.0000          16.0000
R76          32.0000         310.0000          29.0000
R86          29.0000         288.0000          27.0000
R69          27.0000          51.0000          22.0000
R84          22.0000          61.0000           0.0000
R71           2.0000         164.0000           0.0000
> 2024 11 25 23 54 39  0
GPS    3850.23110000   -9447.34280000         324.5000
> 2024 11 25 23 54 39  0
GPS    3850.23110000   -9447.34290000         324.3000
> 2024 11 25 23 54 39  0
GPS    3850.23120000   -9447.34290000         324.4000
> 2024 11 25 23 54 39  0
GPS    3850.23110000   -9447.34310000         324.3000
> 2024 11 25 23 54 39  0
GPS    3850.23120000   -9447.34330000         324.3000
G20          72.0000         159.0000          25.0000
G11          71.0000          12.0000          21.0000
G12          62.0000         237.0000          26.0000
G05          41.0000         190.0000          25.0000
G06          31.0000          54.0000          18.0000
G19          23.0000         105.0000          22.0000
G09          11.0000          59.0000          16.0000
G17           4.0000         112.0000           0.0000
G28           1.0000         317.0000           0.0000
R85          55.0000         359.0000          33.0000
R75          40.0000         233.0000           0.0000
R76          32.0000         310.0000          30.0000
R86          29.0000         288.0000          27.0000
R69          27.0000          51.0000          23.0000
R84          22.0000          61.0000           0.0000
R71           2.0000         164.0000           0.0000
> 2024 11 25 23 54 39  0
GPS    3850.23120000   -9447.34330000         324.3000
> 2024 11 25 23 54 39  0
GPS    3850.23120000   -9447.34320000         324.2000
> 2024 11 25 23 54 39  0
GPS    3850.23120000   -9447.34310000         324.1000
> 2024 11 25 23 54 39  0
GPS    3850.23110000   -9447.34300000         324.1000
> 2024 11 25 23 54 39  0
GPS    3850.23120000   -9447.34300000         324.0000
G20          72.0000         159.0000          25.0000
G11          71.0000          12.0000          21.0000
G12          62.0000         237.0000          26.0000
G05          41.0000         190.0000          26.0000
G06          31.0000          54.0000          18.0000
G19          23.0000         105.0000          21.0000
G09          11.0000          59.0000          17.0000
G17           4.0000         112.0000           0.0000
G28           1.0000         316.0000           0.0000
R85          55.0000         359.0000          33.0000
R75          40.0000         233.0000           0.0000
R76          32.0000         310.0000          29.0000
R86          29.0000         288.0000          27.0000
R69          27.0000          51.0000          23.0000
R84          22.0000          61.0000           0.0000
R71           2.0000         164.0000           0.0000
> 2024 11 25 23 54 39  0
GPS    3850.23130000   -9447.34300000         324.1000
> 2024 11 25 23 54 39  0
GPS    3850.23140000   -9447.34300000         324.2000
> 2024 11 25 23 54 39  0
GPS    3850.23130000   -9447.34280000         324.2000
> 2024 11 25 23 54 39  0
GPS    3850.23110000   -9447.34280000         324.1000
> 2024 11 25 23 54 39  0
GPS    3850.23090000   -9447.34280000         324.0000
G20          72.0000         159.0000          25.0000
G11          71.0000          12.0000          22.0000
G12          62.0000         237.0000          27.0000
G05          41.0000         190.0000          26.0000
G06          31.0000          54.0000          18.0000
G19          23.0000         105.0000          21.0000
G09          11.0000          59.0000          17.0000
G17           4.0000         112.0000           0.0000
G28           1.0000         316.0000           0.0000
R85          55.0000         359.0000          33.0000
R75          40.0000         233.0000           0.0000
R76          32.0000         310.0000          29.0000
R86          29.0000         288.0000          27.0000
R69          27.0000          51.0000          24.0000
R84          22.0000          61.0000           0.0000
R71           2.0000         164.0000           0.0000
> 2024 11 25 23 54 39  0
GPS    3850.23080000   -9447.34280000         323.9000
> 2024 11 25 23 54 39  0
GPS    3850.23070000   -9447.34270000         323.8000
> 2024 11 25 23 54 39  0
GPS    3850.23080000   -9447.34290000         324.0000
> 2024 11 25 23 54 39  0
GPS    3850.23080000   -9447.34300000         324.2000
> 2024 11 25 23 54 39  0
GPS    3850.23060000   -9447.34320000         324.1000
G20          72.0000         159.0000          25.0000
G11          71.0000          12.0000          23.0000
G12          62.0000         237.0000          27.0000
G05          41.0000         190.0000          26.0000
G06          31.0000          54.0000          20.0000
G19          23.0000         105.0000          21.0000
G09          11.0000          59.0000          17.0000
G17           4.0000         112.0000           0.0000
G28           1.0000         316.0000           0.0000
R85          55.0000         359.0000          33.0000
R75          40.0000         233.0000           0.0000
R76          32.0000         310.0000          29.0000
R86          29.0000         288.0000          27.0000
R69          27.0000          51.0000          24.0000
R84          22.0000          61.0000           0.0000
R71           2.0000         164.0000           0.0000
> 2024 11 25 23 54 39  0
GPS    3850.23050000   -9447.34330000         324.1000
> 2024 11 25 23 54 39  0
GPS    3850.23050000   -9447.34330000         324.1000
> 2024 11 25 23 54 39  0
GPS    3850.23050000   -9447.34340000         324.1000
> 2024 11 25 23 54 39  0
GPS    3850.23070000   -9447.34350000         324.2000
> 2024 11 25 23 54 39  0
GPS    3850.23080000   -9447.34350000         324.4000
G20          72.0000         159.0000          25.0000
G11          71.0000          12.0000          23.0000
G12          62.0000         237.0000          27.0000
G05          41.0000         190.0000          25.0000
G44          39.0000         213.0000           0.0000
G06          31.0000          54.0000          19.0000
G29          19.0000         302.0000          24.0000
G09          11.0000          59.0000          17.0000
G17           4.0000         112.0000           0.0000
R85          55.0000         359.0000          33.0000
R75          40.0000         233.0000           0.0000
R76          32.0000         310.0000          29.0000
R86          29.0000         288.0000          27.0000
R69          27.0000          51.0000          23.0000
R84          22.0000          61.0000           0.0000
R71           2.0000         164.0000           0.0000
> 2024 11 25 23 54 39  0
GPS    3850.23080000   -9447.34360000         324.6000
> 2024 11 25 23 54 39  0
GPS    3850.23070000   -9447.34350000         324.7000
> 2024 11 25 23 54 39  0
GPS    3850.23070000   -9447.34360000         324.8000
> 2024 11 25 23 54 39  0
GPS    3850.23070000   -9447.34350000         324.9000
> 2024 11 25 23 54 39  0
GPS    3850.23080000   -9447.34350000         325.0000
G20          72.0000         159.0000          25.0000
G11          71.0000          12.0000          23.0000
G12          62.0000         237.0000          28.0000
G05          41.0000         190.0000          25.0000
G44          39.0000         213.0000           0.0000
G06          31.0000          54.0000          20.0000
G29          19.0000         302.0000          24.0000
G09          11.0000          59.0000          17.0000
G17           4.0000         112.0000           0.0000
R85          55.0000         359.0000          33.0000
R75          40.0000         233.0000           0.0000
R76          32.0000         310.0000          29.0000
R86          29.0000         288.0000          27.0000
R69          27.0000          51.0000          23.0000
R84          22.0000          61.0000           0.0000
R71           2.0000         164.0000           0.0000
> 2024 11 25 23 54 39  0
GPS    3850.23090000   -9447.34330000         325.0000
> 2024 11 25 23 54 39  0
GPS    3850.23090000   -9447.34320000         325.0000
> 2024 11 25 23 54 39  0
GPS    3850.23100000   -9447.34300000         325.0000
> 2024 11 25 23 54 39  0
GPS    3850.23090000   -9447.34290000         325.0000
> 2024 11 25 23 54 39  0
GPS    3850.23090000   -9447.34290000         325.0000
G20          72.0000         159.0000          25.0000
G11          71.0000          12.0000          23.0000
G12          62.0000         237.0000          26.0000
G05          41.0000         190.0000          26.0000
G44          39.0000         213.0000           0.0000
G06          31.0000          54.0000          21.0000
G29          19.0000         302.0000          24.0000
G09          11.0000          59.0000          17.0000
G17           4.0000         112.0000           0.0000
R85          55.0000         359.0000          32.0000
R75          40.0000         233.0000           0.0000
R76          32.0000         310.0000          29.0000
R86          29.0000         288.0000          27.0000
R69          27.0000          51.0000          23.0000
R84          22.0000          61.0000           0.0000
R71           2.0000         164.0000           0.0000
> 2024 11 25 23 54 39  0
GPS    3850.23100000   -9447.34280000         325.0000
> 2024 11 25 23 54 39  0
GPS    3850.23090000   -9447.34270000         324.9000
> 2024 11 25 23 54 39  0
GPS    3850.23090000   -9447.34290000         324.9000
> 2024 11 25 23 54 39  0
GPS    3850.23080000   -9447.34280000         324.9000
> 2024 11 25 23 54 39  0
GPS    3850.23080000   -9447.34270000         324.9000
G20          72.0000         159.0000          24.0000
G11          71.0000          12.0000          23.0000
G12          62.0000         237.0000          28.0000
G51          43.0000         199.0000           0.0000
G05          41.0000         190.0000          25.0000
G06          31.0000          54.0000          21.0000
G29          19.0000         302.0000          23.0000
G09          11.0000          59.0000          17.0000
G17           4.0000         112.0000           0.0000
R85          55.0000         359.0000          32.0000
R75          40.0000         233.0000           0.0000
R76          32.0000         310.0000          29.0000
R86          29.0000         288.0000          27.0000
R69          27.0000          51.0000          23.0000
R84          22.0000          61.0000           0.0000
R71           2.0000         164.0000           0.0000
> 2024 11 25 23 54 39  0
GPS    3850.23070000   -9447.34280000         324.9000
> 2024 11 25 23 54 39  0
GPS    3850.23070000   -9447.34280000         324.9000
> 2024 11 25 23 54 39  0
GPS    3850.23110000   -9447.34280000         325.2000
> 2024 11 25 23 54 39  0
GPS    3850.23110000   -9447.34280000         325.1000
> 2024 11 25 23 54 39  0
GPS    3850.23120000   -9447.34270000         325.1000
G20          72.0000         159.0000          24.0000
G11          71.0000          12.0000          23.0000
G12          62.0000         237.0000          28.0000
G51          43.0000         199.0000           0.0000
G05          41.0000         190.0000          25.0000
G06          31.0000          54.0000          22.0000
G29          19.0000         302.0000          24.0000
G09          11.0000          59.0000          17.0000
G17           4.0000         112.0000           0.0000
R85          55.0000         359.0000          32.0000
R75          40.0000         233.0000           0.0000
R76          32.0000         310.0000          29.0000
R86          29.0000         288.0000          27.0000
R69          27.0000          51.0000          23.0000
R84          22.0000          61.0000           0.0000
R71           2.0000         164.0000           0.0000
> 2024 11 25 23 54 39  0
GPS    3850.23130000   -9447.34270000         325.1000
> 2024 11 25 23 54 39  0
GPS    3850.23130000   -9447.34260000         325.0000
> 2024 11 25 23 54 39  0
GPS    3850.23140000   -9447.34280000         325.1000
> 2024 11 25 23 54 39  0
GPS    3850.23140000   -9447.34290000         325.2000
> 2024 11 25 23 54 39  0
GPS    3850.23130000   -9447.34290000         325.3000
G20          72.0000         159.0000          24.0000
G11          71.0000          12.0000          24.0000
G12          62.0000         237.0000          28.0000
G05          41.0000         190.0000          25.0000
G06          31.0000          54.0000          22.0000
G48          30.0000         231.0000           0.0000
G29          19.0000         302.0000          24.0000
G09          11.0000          59.0000          15.0000
G17           4.0000         112.0000           0.0000
R85          55.0000         359.0000          32.0000
R75          40.0000         233.0000           0.0000
R76          32.0000         310.0000          30.0000
R86          29.0000         288.0000          27.0000
R69          27.0000          51.0000          22.0000
R84          22.0000          61.0000           0.0000
R71           2.0000         164.0000           0.0000
> 2024 11 25 23 54 39  0
GPS    3850.23130000   -9447.34280000         325.3000
> 2024 11 25 23 54 39  0
GPS    3850.23130000   -9447.34270000         325.4000
> 2024 11 25 23 54 39  0
GPS    3850.23140000   -9447.34270000         325.4000
> 2024 11 25 23 54 39  0
GPS    3850.23120000   -9447.34260000         325.4000
> 2024 11 25 23 54 39  0
GPS    3850.23130000   -9447.34260000         325.4000
G20          72.0000         159.0000          24.0000
G11          71.0000          12.0000          24.0000
G12          62.0000         237.0000          28.0000
G05          41.0000         190.0000          25.0000
G06          31.0000          54.0000          23.0000
G48          30.0000         231.0000           0.0000
G29          19.0000         302.0000          24.0000
G09          11.0000          59.0000          16.0000
G17           4.0000         112.0000           0.0000
R85          55.0000         359.0000          31.0000
R75          40.0000         233.0000           0.0000
R76          32.0000         310.0000          30.0000
R86          29.0000         288.0000          28.0000
R69          27.0000          50.0000          22.0000
R84          22.0000          61.0000           0.0000
R71           3.0000         164.0000           0.0000
> 2024 11 25 23 54 39  0
GPS    3850.23130000   -9447.34240000         325.3000
> 2024 11 25 23 54 39  0
GPS    3850.23140000   -9447.34240000         325.8000
> 2024 11 25 23 54 39  0
GPS    3850.23140000   -9447.34240000         325.8000
> 2024 11 25 23 54 39  0
GPS    3850.23130000   -9447.34230000         326.0000
> 2024 11 25 23 54 39  0
GPS    3850.23120000   -9447.34220000         326.1000
G20          72.0000         159.0000          24.0000
G11          71.0000          12.0000          24.0000
G12          62.0000         237.0000          28.0000
G05          41.0000         190.0000          25.0000
G06          31.0000          54.0000          23.0000
G19          23.0000         105.0000          21.0000
G09          11.0000          59.0000          15.0000
G17           4.0000         112.0000           0.0000
G28           1.0000         316.0000           0.0000
R85          55.0000         359.0000          31.0000
R75          39.0000         232.0000           0.0000
R76          33.0000         309.0000          29.0000
R86          29.0000         288.0000          28.0000
R69          27.0000          50.0000          22.0000
R84          22.0000          61.0000           0.0000
R71           3.0000         164.0000           0.0000
> 2024 11 25 23 54 39  0
GPS    3850.23120000   -9447.34230000         326.1000
> 2024 11 25 23 54 39  0
GPS    3850.23120000   -9447.34230000         326.4000
> 2024 11 25 23 54 39  0
GPS    3850.23130000   -9447.34220000         326.4000
> 2024 11 25 23 54 39  0
GPS    3850.23120000   -9447.34210000         326.3000
> 2024 11 25 23 54 39  0
GPS    3850.23130000   -9447.34210000         326.4000
G20          72.0000         159.0000          24.0000
G11          71.0000          12.0000          24.0000
G12          62.0000         237.0000          29.0000
G05          41.0000         190.0000          25.0000
G06          31.0000          54.0000          24.0000
G19          23.0000         105.0000          23.0000
G09          11.0000          59.0000          17.0000
G17           4.0000         112.0000           0.0000
G28           1.0000         316.0000           0.0000
R85          55.0000         359.0000          31.0000
R75          39.0000         232.0000           0.0000
R76          33.0000         309.0000          29.0000
R86          29.0000         288.0000          28.0000
R69          27.0000          50.0000          21.0000
R84          22.0000          61.0000           0.0000
R71           3.0000         164.0000           0.0000
> 2024 11 25 23 54 39  0
GPS    3850.23130000   -9447.34200000         326.4000
> 2024 11 25 23 54 39  0
GPS    3850.23150000   -9447.34200000         326.5000
> 2024 11 25 23 54 39  0
GPS    3850.23160000   -9447.34200000         326.8000
> 2024 11 25 23 54 39  0
GPS    3850.23170000   -9447.34210000         327.0000
> 2024 11 25 23 54 39  0
GPS    3850.23180000   -9447.34210000         327.1000
G20          72.0000         159.0000          24.0000
G11          71.0000          12.0000          25.0000
G12          62.0000         237.0000          29.0000
G05          41.0000         190.0000          25.0000
G06          31.0000          54.0000          24.0000
G19          23.0000         105.0000          23.0000
G09          11.0000          59.0000          17.0000
G17           4.0000         112.0000           0.0000
G28           1.0000         316.0000           0.0000
R85          55.0000           1.0000          31.0000
R75          39.0000         232.0000           0.0000
R76          33.0000         309.0000          29.0000
R86          30.0000         289.0000          28.0000
R69          27.0000          50.0000          21.0000
R84          21.0000          62.0000           0.0000
R71           3.0000         164.0000           0.0000
> 2024 11 25 23 54 39  0
GPS    3850.23180000   -9447.34210000         327.1000
> 2024 11 25 23 54 39  0
GPS    3850.23180000   -9447.34210000         327.0000
> 2024 11 25 23 54 39  0
GPS    3850.23170000   -9447.34200000         326.9000
> 2024 11 25 23 54 39  0
GPS    3850.23170000   -9447.34200000         327.0000
> 2024 11 25 23 54 39  0
GPS    3850.23180000   -9447.34200000         327.1000
G20          72.0000         159.0000          24.0000
G11          71.0000          12.0000          25.0000
G12          62.0000         237.0000          28.0000
G05          41.0000         190.0000          26.0000
G06          31.0000          54.0000          24.0000
G19          23.0000         105.0000          23.0000
G09          11.0000          59.0000          14.0000
G17           4.0000         112.0000           0.0000
G28           1.0000         316.0000           0.0000
R85          55.0000           1.0000          31.0000
R75          39.0000         232.0000           0.0000
R76          33.0000         309.0000          29.0000
R86          30.0000         289.0000          28.0000
R69          27.0000          50.0000          21.0000
R84          21.0000          62.0000           0.0000
R71           3.0000         164.0000           0.0000
> 2024 11 25 23 54 39  0
GPS    3850.23190000   -9447.34220000         327.4000
> 2024 11 25 23 54 39  0
GPS    3850.23190000   -9447.34240000         327.3000
> 2024 11 25 23 54 39  0
GPS    3850.23170000   -9447.34250000         327.2000
> 2024 11 25 23 54 39  0
GPS    3850.23160000   -9447.34260000         327.1000
> 2024 11 25 23 54 39  0
GPS    3850.23150000   -9447.34260000         326.9000
G20          72.0000         159.0000          24.0000
G11          71.0000          12.0000          25.0000
G12          62.0000         237.0000          28.0000
G05          41.0000         190.0000          25.0000
G06          31.0000          54.0000          25.0000
G19          23.0000         105.0000          23.0000
G09          11.0000          59.0000          17.0000
G17           4.0000         112.0000           0.0000
G28           1.0000         316.0000           0.0000
R85          55.0000           1.0000          31.0000
R75          39.0000         232.0000           0.0000
R76          33.0000         309.0000          29.0000
R86          30.0000         289.0000          28.0000
R69          27.0000          50.0000          22.0000
R84          21.0000          62.0000           0.0000
R71           3.0000         164.0000           0.0000
> 2024 11 25 23 54 39  0
GPS    3850.23170000   -9447.34270000         327.1000
> 2024 11 25 23 54 39  0
GPS    3850.23170000   -9447.34280000         327.4000
> 2024 11 25 23 54 39  0
GPS    3850.23180000   -9447.34280000         327.3000
> 2024 11 25 23 54 39  0
GPS    3850.23190000   -9447.34290000         327.5000
> 2024 11 25 23 54 39  0
GPS    3850.23180000   -9447.34290000         327.5000
G20          72.0000         159.0000          24.0000
G11          71.0000          12.0000          26.0000
G12          62.0000         237.0000          29.0000
G05          41.0000         190.0000          25.0000
G06          31.0000          54.0000          25.0000
G19          23.0000         105.0000          23.0000
G09          11.0000          59.0000          17.0000
G17           4.0000         112.0000           0.0000
G28           1.0000         316.0000           0.0000
R85          55.0000           1.0000          31.0000
R75          39.0000         232.0000           0.0000
R76          33.0000         309.0000          29.0000
R86          30.0000         289.0000          28.0000
R69          27.0000          50.0000          22.0000
R84          21.0000          62.0000           0.0000
R71           3.0000         164.0000           0.0000
> 2024 11 25 23 54 39  0
GPS    3850.23180000   -9447.34280000         327.4000
> 2024 11 25 23 54 39  0
GPS    3850.23200000   -9447.34290000         327.7000
> 2024 11 25 23 54 39  0
GPS    3850.23210000   -9447.34290000         328.0000
> 2024 11 25 23 54 39  0
GPS    3850.23220000   -9447.34300000         328.1000
> 2024 11 25 23 54 39  0
GPS    3850.23210000   -9447.34310000         328.0000
G20          72.0000         159.0000          24.0000
G11          71.0000          12.0000          26.0000
G12          62.0000         237.0000          28.0000
G05          41.0000         190.0000          25.0000
G06          31.0000          54.0000          25.0000
G19          23.0000         105.0000          22.0000
G09          11.0000          59.0000          17.0000
G17           4.0000         112.0000           0.0000
G28           1.0000         316.0000           0.0000
R85          55.0000           1.0000          31.0000
R75          39.0000         232.0000           0.0000
R76          33.0000         309.0000          28.0000
R86          30.0000         289.0000          28.0000
R69          27.0000          50.0000          23.0000
R84          21.0000          62.0000           0.0000
R71           3.0000         164.0000           0.0000
> 2024 11 25 23 54 39  0
GPS    3850.23210000   -9447.34290000         328.0000
> 2024 11 25 23 54 39  0
GPS    3850.23200000   -9447.34270000         328.0000
> 2024 11 25 23 54 39  0
GPS    3850.23200000   -9447.34260000         328.0000
> 2024 11 25 23 54 39  0
GPS    3850.23220000   -9447.34260000         328.1000
> 2024 11 25 23 54 39  0
GPS    3850.23220000   -9447.34270000         328.2000
G20          72.0000         159.0000          24.0000
G11          71.0000          12.0000          26.0000
G12          62.0000         237.0000          28.0000
G05          41.0000         190.0000          25.0000
G06          31.0000          54.0000          25.0000
G19          23.0000         105.0000          23.0000
G09          11.0000          59.0000          17.0000
G17           4.0000         112.0000           0.0000
G28           1.0000         316.0000           0.0000
R85          55.0000           1.0000          31.0000
R75          39.0000         232.0000           0.0000
R76          33.0000         309.0000          28.0000
R86          30.0000         289.0000          28.0000
R69          27.0000          50.0000          24.0000
R84          21.0000          62.0000           0.0000
R71           3.0000         164.0000           0.0000
> 2024 11 25 23 54 39  0
GPS    3850.23240000   -9447.34260000         328.3000
> 2024 11 25 23 54 39  0
GPS    3850.23230000   -9447.34250000         328.2000
> 2024 11 25 23 54 39  0
GPS    3850.23210000   -9447.34240000         328.1000
> 2024 11 25 23 54 39  0
GPS    3850.23210000   -9447.34240000         328.1000
> 2024 11 25 23 54 39  0
GPS    3850.23220000   -9447.34240000         328.1000
G20          72.0000         159.0000          24.0000
G11          71.0000          12.0000          26.0000
G12          62.0000         237.0000          29.0000
G05          41.0000         190.0000          25.0000
G06          31.0000          54.0000          25.0000
G19          23.0000         105.0000          23.0000
G09          11.0000          59.0000          18.0000
G17           4.0000         112.0000           0.0000
G28           1.0000         316.0000           0.0000
R85          55.0000           1.0000          31.0000
R75          39.0000         232.0000           0.0000
R76          33.0000         309.0000          28.0000
R86          30.0000         289.0000          28.0000
R69          27.0000          50.0000          24.0000
R84          21.0000          62.0000           0.0000
R71           3.0000         164.0000           0.0000
> 2024 11 25 23 54 39  0
GPS    3850.23210000   -9447.34240000         328.2000
> 2024 11 25 23 54 39  0
GPS    3850.23210000   -9447.34230000         328.1000
> 2024 11 25 23 54 39  0
GPS    3850.23200000   -9447.34240000         327.9000
> 2024 11 25 23 54 39  0
GPS    3850.23200000   -9447.34240000         327.8000
> 2024 11 25 23 54 39  0
GPS    3850.23210000   -9447.34250000         327.8000
G20          72.0000         159.0000          25.0000
G11          71.0000          12.0000          26.0000
G12          62.0000         237.0000          28.0000
G05          41.0000         190.0000          24.0000
G06          31.0000          54.0000          25.0000
G19          23.0000         105.0000          24.0000
G09          11.0000          59.0000          19.0000
G17           4.0000         112.0000           0.0000
G28           1.0000         316.0000           0.0000
R85          55.0000           1.0000          30.0000
R75          39.0000         232.0000           0.0000
R76          33.0000         309.0000          28.0000
R86          30.0000         289.0000          28.0000
R69          27.0000          50.0000          24.0000
R84          21.0000          62.0000           0.0000
R71           3.0000         164.0000           0.0000
> 2024 11 25 23 54 39  0
GPS    3850.23210000   -9447.34230000         327.8000
> 2024 11 25 23 54 39  0
GPS    3850.23210000   -9447.34250000         327.9000
> 2024 11 25 23 54 39  0
GPS    3850.23190000   -9447.34240000         327.7000
> 2024 11 25 23 54 39  0
GPS    3850.23170000   -9447.34240000         327.4000
> 2024 11 25 23 54 39  0
GPS    3850.23160000   -9447.34230000         327.2000
G20          72.0000         159.0000          24.0000
G11          71.0000          12.0000          26.0000
G12          62.0000         237.0000          28.0000
G05          42.0000         191.0000          24.0000
G06          30.0000          55.0000          25.0000
G19          23.0000         105.0000          23.0000
G09          11.0000          59.0000          18.0000
G17           4.0000         112.0000           0.0000
G28           1.0000         316.0000           0.0000
R85          55.0000           1.0000          31.0000
R75          39.0000         232.0000           0.0000
